{
	"data": {
		"pointList": [
			{
				"code": "BJ",
				"identifier": "PEK",
				"latitude": 40.04944444398085,
				"longitude": 116.73388888891786,
				"pointId": 1340,
				"pointName": "官庄"
			}, {
				"code": "P02",
				"latitude": 35.02138888885578,
				"longitude": 118.93500000002483,
				"pointId": 1341,
				"pointName": "P02"
			}, {
				"code": "P04",
				"latitude": 27.02972222268581,
				"longitude": 102.40138888893028,
				"pointId": 1345,
				"pointName": "P04"
			}, {
				"code": "AKPAD",
				"latitude": 42.18500000002484,
				"longitude": 116.475,
				"pointId": 1346,
				"pointName": "AKPAD"
			}, {
				"code": "P06",
				"latitude": 40.22138888885578,
				"longitude": 119.17916666666666,
				"pointId": 1348,
				"pointName": "P06"
			}, {
				"code": "p66",
				"latitude": 38.18333333333333,
				"longitude": 115.19499999980131,
				"pointId": 1349,
				"pointName": "P66"
			}, {
				"code": "P07",
				"latitude": 38.11111111144225,
				"longitude": 119.53249999980132,
				"pointId": 1350,
				"pointName": "P07"
			}, {
				"code": "NIXEP",
				"latitude": 38.25,
				"longitude": 120.98833333353201,
				"pointId": 1353,
				"pointName": "NIXEP"
			}, {
				"code": "ATSAB",
				"latitude": 25.0933333337307,
				"longitude": 118.61833333335817,
				"pointId": 1357,
				"pointName": "ATSAB"
			}, {
				"code": "P11",
				"latitude": 32.16333333353202,
				"longitude": 107.84388888875644,
				"pointId": 1359,
				"pointName": "P11"
			}, {
				"code": "XUTUG",
				"latitude": 32.46388888855775,
				"longitude": 119.57555555601915,
				"pointId": 1360,
				"pointName": "XUTGU"
			}, {
				"code": "P12",
				"latitude": 39.59694444437822,
				"longitude": 108.22388888895512,
				"pointId": 1361,
				"pointName": "P12"
			}, {
				"code": "PUGIM",
				"latitude": 29.08333333333333,
				"longitude": 119.61666666666666,
				"pointId": 1363,
				"pointName": "PUGIM"
			}, {
				"code": "MAPMU",
				"latitude": 37.04472222228845,
				"longitude": 110.63777777800958,
				"pointId": 1365,
				"pointName": "MAPMU"
			}, {
				"code": "P16",
				"latitude": 35.84583333333333,
				"longitude": 113.2933333337307,
				"pointId": 1367,
				"pointName": "PADNO"
			}, {
				"code": "LAGAL",
				"latitude": 33.4672222222512,
				"longitude": 118.70555555572112,
				"pointId": 1368,
				"pointName": "LAGAL"
			}, {
				"code": "ZHLSGZJJD",
				"latitude": 37.16666666666666,
				"longitude": 124.0,
				"pointId": 1370,
				"pointName": "AGAVO"
			}, {
				"code": "GIVIV",
				"latitude": 20.95388888890545,
				"longitude": 111.05527777771155,
				"pointId": 1372,
				"pointName": "GIVIV"
			}, {
				"code": "P20",
				"latitude": 22.71333333353202,
				"longitude": 109.28472222226361,
				"pointId": 1373,
				"pointName": "P20"
			}, {
				"code": "RANGA",
				"latitude": 31.20916666686535,
				"longitude": 119.4105555554231,
				"pointId": 1374,
				"pointName": "RANGA"
			}, {
				"code": "P36",
				"latitude": 30.06777777783573,
				"longitude": 115.91305555601915,
				"pointId": 1375,
				"pointName": "P36"
			}, {
				"code": "AKARA",
				"latitude": 31.5,
				"longitude": 123.5,
				"pointId": 1376,
				"pointName": "AKARA"
			}, {
				"code": "P24",
				"latitude": 34.13888888905446,
				"longitude": 110.45444444467624,
				"pointId": 1377,
				"pointName": "P24"
			}, {
				"code": "ADMUX",
				"latitude": 38.87583333353202,
				"longitude": 90.95027777779227,
				"pointId": 1378,
				"pointName": "ADMUX"
			}, {
				"code": "AKOMA",
				"latitude": 34.69138888865709,
				"longitude": 114.75277777786056,
				"pointId": 1379,
				"pointName": "AKOMA"
			}, {
				"code": "P27",
				"latitude": 40.46499999960263,
				"longitude": 97.4016666666915,
				"pointId": 1380,
				"pointName": "P27"
			}, {
				"code": "P25",
				"latitude": 28.98805555552244,
				"longitude": 117.4808333337307,
				"pointId": 1381,
				"pointName": "P25"
			}, {
				"code": "ALARA",
				"latitude": 38.56111111144225,
				"longitude": 120.5516666666915,
				"pointId": 1384,
				"pointName": "ALARA"
			}, {
				"code": "P29",
				"latitude": 34.2105555554231,
				"longitude": 106.5586111108462,
				"pointId": 1385,
				"pointName": "P29"
			}, {
				"code": "PEXEK",
				"latitude": 29.33333333333333,
				"longitude": 115.7516666666915,
				"pointId": 1386,
				"pointName": "PEXEK"
			}, {
				"code": "ANDIN",
				"latitude": 41.07833333313465,
				"longitude": 118.71499999960264,
				"pointId": 1388,
				"pointName": "ANDIN"
			}, {
				"code": "P40",
				"latitude": 32.175,
				"longitude": 107.76972222228845,
				"pointId": 1389,
				"pointName": "P40"
			}, {
				"code": "ANRAT",
				"latitude": 38.65833333333333,
				"longitude": 119.95666666676601,
				"pointId": 1390,
				"pointName": "ANRAT"
			}, {
				"code": "TEBON",
				"latitude": 24.13805555552244,
				"longitude": 117.50111111116907,
				"pointId": 1391,
				"pointName": "TEBON"
			}, {
				"code": "P47",
				"latitude": 27.29388888875644,
				"longitude": 117.1672222222512,
				"pointId": 1392,
				"pointName": "P47"
			}, {
				"code": "P33",
				"latitude": 29.3516666666915,
				"longitude": 117.80833333333334,
				"pointId": 1393,
				"pointName": "P33"
			}, {
				"code": "ANSUK",
				"latitude": 41.0480555554231,
				"longitude": 124.19361111124357,
				"pointId": 1394,
				"pointName": "ANSUK"
			}, {
				"code": "P48",
				"latitude": 27.54277777771155,
				"longitude": 117.69833333293597,
				"pointId": 1395,
				"pointName": "P48"
			}, {
				"code": "P65",
				"latitude": 36.31666666666667,
				"longitude": 120.01666666666667,
				"pointId": 1396,
				"pointName": "P65"
			}, {
				"code": "P49",
				"latitude": 29.22277777791023,
				"longitude": 118.1375,
				"pointId": 1397,
				"pointName": "P49"
			}, {
				"code": "zegjd",
				"latitude": 47.88333333333333,
				"longitude": 134.65833333333333,
				"pointId": 1398,
				"pointName": "ARGUK"
			}, {
				"code": "P22",
				"latitude": 28.4433333337307,
				"longitude": 120.69666666686535,
				"pointId": 1399,
				"pointName": "P22"
			}, {
				"code": "DALIM",
				"latitude": 36.41777777783572,
				"longitude": 117.21305555601914,
				"pointId": 1402,
				"pointName": "DALIM"
			}, {
				"code": "APITO",
				"latitude": 29.58333333333333,
				"longitude": 124.0,
				"pointId": 1403,
				"pointName": "APITO"
			}, {
				"code": "P53",
				"latitude": 32.21805555559695,
				"longitude": 109.77749999960264,
				"pointId": 1404,
				"pointName": "P53"
			}, {
				"code": "APOGO",
				"latitude": 37.92944444417954,
				"longitude": 110.66472222208976,
				"pointId": 1405,
				"pointName": "APOGO"
			}, {
				"code": "P64",
				"latitude": 35.6016666666915,
				"longitude": 117.03833333353201,
				"pointId": 1406,
				"pointName": "P64"
			}, {
				"code": "qbb",
				"latitude": 32.92833333313465,
				"longitude": 117.21499999960264,
				"pointId": 1408,
				"pointName": "切蚌埠"
			}, {
				"code": "REMAX",
				"latitude": 28.37666666706403,
				"longitude": 115.52055555557212,
				"pointId": 1409,
				"pointName": "REMAX"
			}, {
				"code": "qlj",
				"latitude": 31.24499999980132,
				"longitude": 117.21666666666667,
				"pointId": 1411,
				"pointName": "切庐江"
			}, {
				"code": "P58",
				"latitude": 34.84277777771155,
				"longitude": 117.79583333333333,
				"pointId": 1413,
				"pointName": "P58"
			}, {
				"code": "BEKOL",
				"latitude": 22.5433333337307,
				"longitude": 114.13333333333334,
				"pointId": 1414,
				"pointName": "BEKOL"
			}, {
				"code": "qby",
				"latitude": 28.98500000002484,
				"longitude": 116.68333333333334,
				"pointId": 1415,
				"pointName": "切波阳"
			}, {
				"code": "BEGMO",
				"latitude": 28.0,
				"longitude": 121.83333333333333,
				"pointId": 1416,
				"pointName": "BEGMO"
			}, {
				"code": "GOLAL",
				"latitude": 36.7644444445769,
				"longitude": 117.08500000002483,
				"pointId": 1417,
				"pointName": "GOLAL"
			}, {
				"code": "BEMAG",
				"latitude": 26.01777777783573,
				"longitude": 114.00083333334575,
				"pointId": 1418,
				"pointName": "BEMAG"
			}, {
				"code": "OSONO",
				"latitude": 27.7644444445769,
				"longitude": 115.65472222218911,
				"pointId": 1420,
				"pointName": "OSONO"
			}, {
				"latitude": 22.71833333335817,
				"longitude": 100.96499999960264,
				"pointId": 1421,
				"pointName": "BIDRU"
			}, {
				"code": "MEXUP",
				"latitude": 34.01027777791023,
				"longitude": 118.09583333333333,
				"pointId": 1423,
				"pointName": "MEXUP"
			}, {
				"code": "P39",
				"latitude": 32.17666666706403,
				"longitude": 115.56666666666666,
				"pointId": 1424,
				"pointName": "P39"
			}, {
				"code": "BIGRO",
				"latitude": 21.57000000004967,
				"longitude": 111.82666666706403,
				"pointId": 1425,
				"pointName": "BIGRO"
			}, {
				"code": "P59",
				"latitude": 26.3730555554231,
				"longitude": 109.64361111124357,
				"pointId": 1426,
				"pointName": "P59"
			}, {
				"code": "P61",
				"latitude": 29.50833333333333,
				"longitude": 109.63000000019868,
				"pointId": 1427,
				"pointName": "P61"
			}, {
				"code": "OMUDI",
				"latitude": 33.97055555557211,
				"longitude": 118.26666666666667,
				"pointId": 1429,
				"pointName": "OMUDI"
			}, {
				"code": "P62",
				"latitude": 33.53583333343268,
				"longitude": 110.86472222208977,
				"pointId": 1430,
				"pointName": "P62"
			}, {
				"code": "P63",
				"latitude": 33.93666666671633,
				"longitude": 110.58555555567145,
				"pointId": 1431,
				"pointName": "P63"
			}, {
				"code": "UGAGO",
				"latitude": 29.62749999960264,
				"longitude": 119.65222222233812,
				"pointId": 1433,
				"pointName": "UGAGO"
			}, {
				"code": "P74",
				"latitude": 35.08555555567146,
				"longitude": 119.38388888891787,
				"pointId": 1434,
				"pointName": "P74"
			}, {
				"code": "P21",
				"latitude": 25.25,
				"longitude": 118.00833333333334,
				"pointId": 1436,
				"pointName": "P21"
			}, {
				"code": "OVTAN",
				"latitude": 28.21125000019868,
				"longitude": 114.3478611111641,
				"pointId": 1437,
				"pointName": "OVTAN"
			}, {
				"code": "P84",
				"latitude": 26.21111111144225,
				"longitude": 117.99000000009934,
				"pointId": 1439,
				"pointName": "P84"
			}, {
				"code": "P89",
				"latitude": 32.66305555601915,
				"longitude": 112.85211111108462,
				"pointId": 1441,
				"pointName": "P89"
			}, {
				"code": "DABER",
				"latitude": 24.14277777771155,
				"longitude": 116.86222222248713,
				"pointId": 1443,
				"pointName": "DABER"
			}, {
				"code": "TULMU",
				"latitude": 29.79111111114423,
				"longitude": 115.55138888893028,
				"pointId": 1444,
				"pointName": "TULMU"
			}, {
				"code": "P98",
				"latitude": 38.25,
				"longitude": 120.35277777786057,
				"pointId": 1445,
				"pointName": "P98"
			}, {
				"code": "P101",
				"latitude": 22.01583333313465,
				"longitude": 111.31027777791023,
				"pointId": 1446,
				"pointName": "P101"
			}, {
				"code": "P102",
				"latitude": 20.5,
				"longitude": 110.2933333337307,
				"pointId": 1447,
				"pointName": "P102"
			}, {
				"code": "P106",
				"latitude": 35.58733333324393,
				"longitude": 112.77724999984106,
				"pointId": 1449,
				"pointName": "P106"
			}, {
				"code": "P108",
				"latitude": 25.17194444437822,
				"longitude": 106.71777777783572,
				"pointId": 1450,
				"pointName": "P108"
			}, {
				"code": "P110",
				"latitude": 44.15916666686535,
				"longitude": 116.60361111114422,
				"pointId": 1451,
				"pointName": "P110"
			}, {
				"code": "POKOR",
				"latitude": 42.0433333337307,
				"longitude": 116.14777777791024,
				"pointId": 1453,
				"pointName": "POKOR"
			}, {
				"code": "P115",
				"latitude": 32.58388888891786,
				"longitude": 113.03138888875644,
				"pointId": 1457,
				"pointName": "P115"
			}, {
				"code": "UNSEK",
				"latitude": 38.61277777751287,
				"longitude": 120.23555555567145,
				"pointId": 1458,
				"pointName": "UNSEK"
			}, {
				"code": "IDEPO",
				"latitude": 25.71527777810892,
				"longitude": 107.6788888891538,
				"pointId": 1461,
				"pointName": "IDEPO"
			}, {
				"code": "P124",
				"latitude": 32.075,
				"longitude": 108.40555555572112,
				"pointId": 1463,
				"pointName": "P124"
			}, {
				"code": "P125",
				"latitude": 22.2808333337307,
				"longitude": 109.34166666666667,
				"pointId": 1464,
				"pointName": "P125"
			}, {
				"code": "P132",
				"latitude": 27.34944444398085,
				"longitude": 119.74916666646799,
				"pointId": 1465,
				"pointName": "P132"
			}, {
				"code": "OTLEK",
				"latitude": 28.18833333353202,
				"longitude": 107.44000000009935,
				"pointId": 1469,
				"pointName": "OTLEK"
			}, {
				"code": "BIPOP",
				"latitude": 23.34944444398085,
				"longitude": 111.14861111144225,
				"pointId": 1482,
				"pointName": "BIPOP"
			}, {
				"code": "BISUN",
				"latitude": 43.23333333333333,
				"longitude": 131.19666666686535,
				"pointId": 1484,
				"pointName": "BISUN"
			}, {
				"code": "EMRAL",
				"latitude": 29.1,
				"longitude": 115.83333333333333,
				"pointId": 1486,
				"pointName": "EMRAL"
			}, {
				"code": "BUBDA",
				"latitude": 25.86833333335817,
				"longitude": 113.46361111104488,
				"pointId": 1487,
				"pointName": "BUBDA"
			}, {
				"code": "DAGMO",
				"latitude": 27.43583333343268,
				"longitude": 119.55611111124357,
				"pointId": 1489,
				"pointName": "DAGMO"
			}, {
				"code": "DAPRO",
				"latitude": 29.25777777781089,
				"longitude": 113.63916666656732,
				"pointId": 1490,
				"pointName": "DAPRO"
			}, {
				"code": "DONVO",
				"latitude": 37.56666666666667,
				"longitude": 123.33333333333333,
				"pointId": 1495,
				"pointName": "DONVO"
			}, {
				"code": "DONLA",
				"latitude": 27.69944444398085,
				"longitude": 104.39861111144225,
				"pointId": 1496,
				"pointName": "DONLA"
			}, {
				"code": "DOTMI",
				"latitude": 22.71833333335817,
				"longitude": 116.16833333335816,
				"pointId": 1497,
				"pointName": "DOTMI"
			}, {
				"code": "DOPNO",
				"latitude": 35.0,
				"longitude": 123.40527777771155,
				"pointId": 1498,
				"pointName": "DOPNO"
			}, {
				"code": "ELKAL",
				"latitude": 26.09666666686535,
				"longitude": 108.39722222189108,
				"pointId": 1500,
				"pointName": "ELKAL"
			}, {
				"code": "ELNEX",
				"latitude": 29.6316666662693,
				"longitude": 119.49000000009934,
				"pointId": 1502,
				"pointName": "ELNEX"
			}, {
				"code": "ELPUN",
				"latitude": 46.30722222228845,
				"longitude": 121.07166666686535,
				"pointId": 1503,
				"pointName": "ELPUN"
			}, {
				"code": "ENKUS",
				"latitude": 24.67749999960264,
				"longitude": 109.82027777781089,
				"pointId": 1505,
				"pointName": "ENKUS"
			}, {
				"code": "TJ",
				"identifier": "TAJ",
				"latitude": 39.11111111144225,
				"longitude": 117.356666666766,
				"pointId": 1506,
				"pointName": "天津"
			}, {
				"code": "TJ",
				"identifier": "CG",
				"latitude": 39.07861111064752,
				"longitude": 117.37388888895512,
				"pointId": 1508,
				"pointName": "天津"
			}, {
				"code": "P34",
				"latitude": 29.3861111111939,
				"longitude": 116.64722222189108,
				"pointId": 1509,
				"pointName": "P34"
			}, {
				"code": "EPGAM",
				"latitude": 37.25361111114422,
				"longitude": 116.90055555558453,
				"pointId": 1511,
				"pointName": "EPGAM"
			}, {
				"code": "ZD",
				"identifier": "SJW",
				"latitude": 38.28111111124357,
				"longitude": 114.69972222248713,
				"pointId": 1512,
				"pointName": "正定"
			}, {
				"code": "ESBAG",
				"latitude": 31.62027777781089,
				"longitude": 119.6730555554231,
				"pointId": 1513,
				"pointName": "ESBAG"
			}, {
				"code": "wj",
				"identifier": "FL",
				"latitude": 38.24666666686535,
				"longitude": 114.89000000009933,
				"pointId": 1514,
				"pointName": "无极"
			}, {
				"code": "XT",
				"identifier": "OC",
				"latitude": 38.45388888890545,
				"longitude": 114.55583333323399,
				"pointId": 1516,
				"pointName": "行唐"
			}, {
				"code": "zhgjd",
				"latitude": 40.20833333333334,
				"longitude": 124.50833333333334,
				"pointId": 1517,
				"pointName": "GOLOT"
			}, {
				"code": "TY",
				"identifier": "TYN",
				"latitude": 37.74972222248713,
				"longitude": 112.6188888890048,
				"pointId": 1518,
				"pointName": "太原"
			}, {
				"code": "GOSMA",
				"latitude": 29.35397222215931,
				"longitude": 113.24155555566152,
				"pointId": 1519,
				"pointName": "GOSMA"
			}, {
				"code": "GOPTO",
				"latitude": 49.09166666666667,
				"longitude": 87.46666666666667,
				"pointId": 1520,
				"pointName": "GOPTO"
			}, {
				"code": "IDSEG",
				"latitude": 27.68055555522442,
				"longitude": 105.6861111111939,
				"pointId": 1525,
				"pointName": "IDSEG"
			}, {
				"code": "IDSID",
				"latitude": 27.62972222268581,
				"longitude": 105.11111111144224,
				"pointId": 1526,
				"pointName": "IDSID"
			}, {
				"code": "HHHT",
				"identifier": "HET",
				"latitude": 40.72638888855775,
				"longitude": 111.89861111144225,
				"pointId": 1527,
				"pointName": "呼和浩特"
			}, {
				"code": "INTIK",
				"latitude": 43.68000000019868,
				"longitude": 111.9016666666915,
				"pointId": 1528,
				"pointName": "INTIK"
			}, {
				"code": "xlhtdbyt",
				"identifier": "YR",
				"latitude": 43.98500000002483,
				"longitude": 116.01499999960264,
				"pointId": 1529,
				"pointName": "锡林浩特"
			}, {
				"code": "P80",
				"latitude": 42.90111111116906,
				"longitude": 90.25222222233812,
				"pointId": 1530,
				"pointName": "P80"
			}, {
				"code": "LAGEX",
				"latitude": 26.43000000019868,
				"longitude": 109.02638888855775,
				"pointId": 1531,
				"pointName": "LAGEX"
			}, {
				"code": "cf",
				"identifier": "YL",
				"latitude": 42.3316666662693,
				"longitude": 118.83666666671634,
				"pointId": 1532,
				"pointName": "赤峰"
			}, {
				"code": "P147",
				"latitude": 25.36111111144225,
				"longitude": 115.58055555522442,
				"pointId": 1533,
				"pointName": "P147"
			}, {
				"code": "TL",
				"identifier": "TGO",
				"latitude": 43.5586111108462,
				"longitude": 122.19750000039737,
				"pointId": 1537,
				"pointName": "通辽"
			}, {
				"code": "WLHT",
				"identifier": "HLH",
				"latitude": 46.18747222200036,
				"longitude": 122.02722222208976,
				"pointId": 1540,
				"pointName": "乌兰浩特"
			}, {
				"code": "HLE",
				"identifier": "HLD",
				"latitude": 49.20416666666667,
				"longitude": 119.82277777791023,
				"pointId": 1544,
				"pointName": "海拉尔"
			}, {
				"code": "IKATA",
				"latitude": 23.76499999960264,
				"longitude": 117.1361111111939,
				"pointId": 1545,
				"pointName": "IKATA"
			}, {
				"code": "P154",
				"latitude": 23.31777777783573,
				"longitude": 115.75416666666666,
				"pointId": 1546,
				"pointName": "P154"
			}, {
				"code": "BT",
				"identifier": "BAV",
				"latitude": 40.55777777781089,
				"longitude": 109.99666666686535,
				"pointId": 1547,
				"pointName": "包头"
			}, {
				"code": "IKITI",
				"latitude": 45.91499999960264,
				"longitude": 121.23500000002484,
				"pointId": 1548,
				"pointName": "IKITI"
			}, {
				"code": "SUMDO",
				"latitude": 22.90055555558453,
				"longitude": 115.8816666662693,
				"pointId": 1549,
				"pointName": "SUMDO"
			}, {
				"code": "SHGDBJT",
				"identifier": "LC",
				"latitude": 39.99694444437822,
				"longitude": 119.78333333333333,
				"pointId": 1551,
				"pointName": "山海关"
			}, {
				"code": "ISGOD",
				"latitude": 38.28500000002484,
				"longitude": 114.08972222208976,
				"pointId": 1552,
				"pointName": "ISGOD"
			}, {
				"code": "P157",
				"latitude": 26.5,
				"longitude": 113.86166666646798,
				"pointId": 1553,
				"pointName": "P157"
			}, {
				"code": "P158",
				"latitude": 24.6980555554231,
				"longitude": 109.7769444445769,
				"pointId": 1555,
				"pointName": "P158"
			}, {
				"code": "KAGIP",
				"latitude": 37.66666666666666,
				"longitude": 122.0,
				"pointId": 1557,
				"pointName": "KAGIP"
			}, {
				"code": "KAGAK",
				"latitude": 49.26666666666667,
				"longitude": 118.1,
				"pointId": 1559,
				"pointName": "KAGAK"
			}, {
				"code": "GIVIL",
				"latitude": 19.25,
				"longitude": 109.83333333333333,
				"pointId": 1560,
				"pointName": "GIVIL"
			}, {
				"code": "hrdbyt",
				"identifier": "GL",
				"latitude": 39.76333333353202,
				"longitude": 113.18666666671633,
				"pointId": 1561,
				"pointName": "怀仁"
			}, {
				"code": "KAKAT",
				"latitude": 42.18333333333333,
				"longitude": 118.25500000019868,
				"pointId": 1562,
				"pointName": "KAKAT"
			}, {
				"code": "hdhxt",
				"identifier": "KW",
				"latitude": 36.52166666686535,
				"longitude": 114.425,
				"pointId": 1563,
				"pointName": "邯郸"
			}, {
				"code": "QQC",
				"latitude": 36.27944444417953,
				"longitude": 104.12472222199042,
				"pointId": 1565,
				"pointName": "XIXAN"
			}, {
				"code": "NXBYT",
				"identifier": "PK",
				"latitude": 31.28486111114422,
				"longitude": 121.3316666662693,
				"pointId": 1567,
				"pointName": "南翔"
			}, {
				"code": "CK",
				"latitude": 36.79166666666666,
				"longitude": 99.08333333333333,
				"pointId": 1568,
				"pointName": "P87"
			}, {
				"code": "ODOPI",
				"latitude": 24.67361111094554,
				"longitude": 115.40833333333333,
				"pointId": 1569,
				"pointName": "ODOPI"
			}, {
				"code": "IGPAR",
				"latitude": 29.49000000009934,
				"longitude": 110.14111111114423,
				"pointId": 1570,
				"pointName": "IGPAR"
			}, {
				"code": "P88",
				"latitude": 34.06166666646799,
				"longitude": 109.24666666686535,
				"pointId": 1571,
				"pointName": "P88"
			}, {
				"code": "P166",
				"latitude": 24.46361111104488,
				"longitude": 111.28694444447756,
				"pointId": 1572,
				"pointName": "P166"
			}, {
				"code": "LATUX",
				"latitude": 35.48333333333333,
				"longitude": 120.78333333333333,
				"pointId": 1574,
				"pointName": "LATUX"
			}, {
				"code": "ENVEN",
				"latitude": 25.34166666666667,
				"longitude": 118.91833333335816,
				"pointId": 1575,
				"pointName": "ENVEN"
			}, {
				"code": "xznyt",
				"identifier": "WB",
				"latitude": 31.12166666686535,
				"longitude": 121.34000000009934,
				"pointId": 1576,
				"pointName": "莘庄"
			}, {
				"code": "WW",
				"latitude": 37.98000000019868,
				"longitude": 102.58333333333333,
				"pointId": 1577,
				"pointName": "P90"
			}, {
				"code": "LAMEN",
				"latitude": 31.61000000039736,
				"longitude": 124.0,
				"pointId": 1578,
				"pointName": "LAMEN"
			}, {
				"code": "P176",
				"latitude": 26.39750000039737,
				"longitude": 117.79111111114422,
				"pointId": 1579,
				"pointName": "P176"
			}, {
				"code": "JQ",
				"latitude": 39.553333333383,
				"longitude": 98.88666666671634,
				"pointId": 1580,
				"pointName": "P91"
			}, {
				"code": "JQXNYT",
				"identifier": "CJ",
				"latitude": 30.30374999990066,
				"longitude": 120.16569444437822,
				"pointId": 1582,
				"pointName": "笕桥"
			}, {
				"code": "P177",
				"latitude": 40.1808333337307,
				"longitude": 121.54583333333333,
				"pointId": 1583,
				"pointName": "P177"
			}, {
				"code": "ZY",
				"latitude": 38.78000000019868,
				"longitude": 100.74833333293597,
				"pointId": 1584,
				"pointName": "P94"
			}, {
				"code": "ZMGJD",
				"latitude": 23.375,
				"longitude": 98.91666666666667,
				"pointId": 1585,
				"pointName": "LINSO"
			}, {
				"code": "CB",
				"identifier": "NCH",
				"latitude": 28.8864166667064,
				"longitude": 115.91308333277702,
				"pointId": 1586,
				"pointName": "昌北"
			}, {
				"code": "P181",
				"latitude": 34.71027777791024,
				"longitude": 117.13249999980131,
				"pointId": 1587,
				"pointName": "P181"
			}, {
				"code": "MABAG",
				"latitude": 24.31333333353202,
				"longitude": 114.50666666676601,
				"pointId": 1588,
				"pointName": "MABAG"
			}, {
				"code": "LJ",
				"identifier": "RP",
				"latitude": 28.61980555554231,
				"longitude": 115.70708333353201,
				"pointId": 1589,
				"pointName": "李家"
			}, {
				"code": "P182",
				"latitude": 34.87833333313465,
				"longitude": 117.20222222233812,
				"pointId": 1590,
				"pointName": "P182"
			}, {
				"code": "cj",
				"latitude": 44.01833333335817,
				"longitude": 87.3016666666915,
				"pointId": 1591,
				"pointName": "P95"
			}, {
				"code": "ZCGJD",
				"latitude": 22.28833333353202,
				"longitude": 115.82333333343267,
				"pointId": 1592,
				"pointName": "MAGOG"
			}, {
				"code": "MAKNO",
				"latitude": 38.46333333353201,
				"longitude": 121.14833333293596,
				"pointId": 1594,
				"pointName": "MAKNO"
			}, {
				"code": "HTB",
				"identifier": "HTB",
				"latitude": 44.2601388891538,
				"longitude": 86.9036666666468,
				"pointId": 1595,
				"pointName": "呼图壁"
			}, {
				"code": "MAKIB",
				"latitude": 27.65083333334575,
				"longitude": 119.103333333383,
				"pointId": 1597,
				"pointName": "MAKIB"
			}, {
				"code": "MOTOM",
				"latitude": 24.69000000009934,
				"longitude": 109.79388888875643,
				"pointId": 1598,
				"pointName": "MOTOM"
			}, {
				"code": "LK",
				"identifier": "NJL",
				"latitude": 31.75588888923327,
				"longitude": 118.88761111100514,
				"pointId": 1599,
				"pointName": "禄口"
			}, {
				"code": "ABVIL",
				"latitude": 29.64166666666667,
				"longitude": 119.31499999960263,
				"pointId": 1602,
				"pointName": "ABVIL"
			}, {
				"code": "ASL",
				"latitude": 43.5433333337307,
				"longitude": 86.71611111064752,
				"pointId": 1605,
				"pointName": "KABDO"
			}, {
				"code": "qhy",
				"latitude": 28.93500000002484,
				"longitude": 109.64833333293596,
				"pointId": 1608,
				"pointName": "切花垣"
			}, {
				"code": "P52",
				"latitude": 34.43833333353202,
				"longitude": 112.19166666666666,
				"pointId": 1610,
				"pointName": "P52"
			}, {
				"code": "MAMSI",
				"latitude": 25.20472222218911,
				"longitude": 110.21222222248713,
				"pointId": 1611,
				"pointName": "MAMSI"
			}, {
				"code": "MANLI",
				"latitude": 49.58333333333334,
				"longitude": 117.45,
				"pointId": 1613,
				"pointName": "MANLI"
			}, {
				"code": "XDY",
				"identifier": "ID",
				"latitude": 31.66805555559695,
				"longitude": 118.71750000001242,
				"pointId": 1614,
				"pointName": "小丹阳"
			}, {
				"code": "DXC",
				"identifier": "A",
				"latitude": 31.98402777779847,
				"longitude": 118.79216666618983,
				"pointId": 1616,
				"pointName": "大校场"
			}, {
				"code": "MEPAN",
				"latitude": 24.10361111114423,
				"longitude": 105.70250000009933,
				"pointId": 1617,
				"pointName": "MEPAN"
			}, {
				"code": "BIKNO",
				"latitude": 40.91499999960264,
				"longitude": 93.8480555554231,
				"pointId": 1619,
				"pointName": "BIKNO"
			}, {
				"code": "MOVBI",
				"latitude": 40.75777777781089,
				"longitude": 93.6202777778109,
				"pointId": 1621,
				"pointName": "MOVBI"
			}, {
				"code": "AIWD50/CH",
				"latitude": 21.52166666686535,
				"longitude": 113.53333333333333,
				"pointId": 1622,
				"pointName": "AIWD50/CH"
			}, {
				"code": "MIDOX",
				"latitude": 31.32222222238779,
				"longitude": 115.88111111124357,
				"pointId": 1623,
				"pointName": "MIDOX"
			}, {
				"code": "JN",
				"identifier": "YQG",
				"latitude": 36.83194444477558,
				"longitude": 117.21583333313465,
				"pointId": 1624,
				"pointName": "济南"
			}, {
				"code": "hx",
				"latitude": 23.37666666706403,
				"longitude": 113.20166666669151,
				"pointId": 1626,
				"pointName": "花县"
			}, {
				"code": "MORIT",
				"latitude": 42.03333333333333,
				"longitude": 102.81666666666666,
				"pointId": 1628,
				"pointName": "MORIT"
			}, {
				"code": "P206",
				"latitude": 30.3894444445769,
				"longitude": 117.22916666666667,
				"pointId": 1629,
				"pointName": "P206"
			}, {
				"code": "MUBEL",
				"latitude": 24.20972222189108,
				"longitude": 111.27055555557212,
				"pointId": 1630,
				"pointName": "MUBEL"
			}, {
				"code": "TAMOX",
				"latitude": 42.88194444477558,
				"longitude": 91.20749999980131,
				"pointId": 1632,
				"pointName": "TAMOX"
			}, {
				"code": "LJ",
				"identifier": "LJG",
				"latitude": 26.22111111134291,
				"longitude": 119.54916666646798,
				"pointId": 1633,
				"pointName": "连江"
			}, {
				"code": "MUDAL",
				"latitude": 36.83138888875644,
				"longitude": 123.35416666666667,
				"pointId": 1634,
				"pointName": "MUDAL"
			}, {
				"code": "P209",
				"latitude": 39.53305555582047,
				"longitude": 108.33249999980131,
				"pointId": 1635,
				"pointName": "P209"
			}, {
				"code": "FQ",
				"identifier": "FQG",
				"latitude": 25.74138888865709,
				"longitude": 119.3861111111939,
				"pointId": 1636,
				"pointName": "福清"
			}, {
				"code": "P38",
				"latitude": 31.40500000019868,
				"longitude": 112.14000000009933,
				"pointId": 1637,
				"pointName": "P38"
			}, {
				"code": "NIKUN",
				"latitude": 27.98972222208977,
				"longitude": 106.71888888900479,
				"pointId": 1639,
				"pointName": "NIKUN"
			}, {
				"code": "qz",
				"latitude": 22.95,
				"longitude": 116.42000000004967,
				"pointId": 1640,
				"pointName": "前詹"
			}, {
				"code": "HS",
				"identifier": "TXN",
				"latitude": 29.73722222223878,
				"longitude": 118.25444444467624,
				"pointId": 1641,
				"pointName": "黄山"
			}, {
				"code": "P214",
				"latitude": 28.08333333333333,
				"longitude": 118.5,
				"pointId": 1642,
				"pointName": "P214"
			}, {
				"code": "NINAS",
				"latitude": 31.0,
				"longitude": 122.25,
				"pointId": 1643,
				"pointName": "NINAS"
			}, {
				"code": "P215",
				"latitude": 28.05944444437822,
				"longitude": 117.54944444398085,
				"pointId": 1644,
				"pointName": "P215"
			}, {
				"code": "KALMU",
				"latitude": 29.34083333313465,
				"longitude": 111.57972222268582,
				"pointId": 1645,
				"pointName": "KALMU"
			}, {
				"code": "JDZ",
				"identifier": "JDZ",
				"latitude": 29.3424722224474,
				"longitude": 117.17633333305518,
				"pointId": 1646,
				"pointName": "景德镇"
			}, {
				"code": "NODOG",
				"latitude": 24.57666666706403,
				"longitude": 111.2941666662693,
				"pointId": 1647,
				"pointName": "NODOG"
			}, {
				"code": "TAXOR",
				"latitude": 27.82805555562178,
				"longitude": 107.7730555554231,
				"pointId": 1648,
				"pointName": "TAXOR"
			}, {
				"code": "XONID",
				"latitude": 27.05638888875643,
				"longitude": 108.46666666666667,
				"pointId": 1650,
				"pointName": "XONID"
			}, {
				"code": "NOMAR",
				"latitude": 23.50833333333333,
				"longitude": 113.856666666766,
				"pointId": 1652,
				"pointName": "NOMAR"
			}, {
				"code": "P218",
				"latitude": 36.76666666666667,
				"longitude": 119.63333333333334,
				"pointId": 1653,
				"pointName": "P218"
			}, {
				"code": "P01",
				"latitude": 22.15833333333334,
				"longitude": 111.45833333333333,
				"pointId": 1654,
				"pointName": "P01"
			}, {
				"code": "NONIT",
				"latitude": 38.67572222153346,
				"longitude": 113.92586111028989,
				"pointId": 1655,
				"pointName": "NONIT"
			}, {
				"code": "DUBAG",
				"latitude": 34.86277777751287,
				"longitude": 113.72944444417953,
				"pointId": 1656,
				"pointName": "DUBAG"
			}, {
				"code": "P219",
				"latitude": 38.44666666686535,
				"longitude": 106.13333333333334,
				"pointId": 1657,
				"pointName": "P219"
			}, {
				"code": "NUKTI",
				"latitude": 41.86166666646798,
				"longitude": 95.19944444398085,
				"pointId": 1658,
				"pointName": "NUKTI"
			}, {
				"code": "FY",
				"identifier": "FYG",
				"latitude": 32.88194444477558,
				"longitude": 115.73138888875643,
				"pointId": 1659,
				"pointName": "阜阳"
			}, {
				"code": "P220",
				"latitude": 44.83333333333334,
				"longitude": 86.8,
				"pointId": 1660,
				"pointName": "P220"
			}, {
				"code": "OBLIK",
				"latitude": 32.33002777695656,
				"longitude": 114.52486111124357,
				"pointId": 1661,
				"pointName": "OBLIK"
			}, {
				"code": "xh",
				"latitude": 22.50833333333333,
				"longitude": 113.13333333333334,
				"pointId": 1662,
				"pointName": "新会"
			}, {
				"code": "P221",
				"latitude": 45.125,
				"longitude": 86.28333333333333,
				"pointId": 1663,
				"pointName": "P221"
			}, {
				"code": "qkp",
				"latitude": 22.44166666666667,
				"longitude": 112.64166666666667,
				"pointId": 1665,
				"pointName": "切开平"
			}, {
				"code": "P222",
				"latitude": 43.63833333353202,
				"longitude": 85.84166666666667,
				"pointId": 1666,
				"pointName": "P222"
			}, {
				"code": "XL",
				"identifier": "WF",
				"latitude": 24.56666666666667,
				"longitude": 118.01499999960264,
				"pointId": 1667,
				"pointName": "杏林"
			}, {
				"code": "ATVIM",
				"latitude": 33.94833333293597,
				"longitude": 117.20500000019868,
				"pointId": 1668,
				"pointName": "ATVIM"
			}, {
				"code": "VIPAP",
				"latitude": 22.76138888895512,
				"longitude": 114.53222222228845,
				"pointId": 1669,
				"pointName": "VIPAP"
			}, {
				"code": "OMBON",
				"latitude": 33.35722222228845,
				"longitude": 104.27083333333333,
				"pointId": 1670,
				"pointName": "OMBON"
			}, {
				"latitude": 45.39000000009934,
				"longitude": 125.79000000009934,
				"pointId": 1671,
				"pointName": "P224"
			}, {
				"code": "yc",
				"latitude": 33.41666666666666,
				"longitude": 120.16666666666667,
				"pointId": 1672,
				"pointName": "盐城西南远台"
			}, {
				"code": "P225",
				"latitude": 34.02333333343267,
				"longitude": 110.525,
				"pointId": 1673,
				"pointName": "P225"
			}, {
				"code": "TL",
				"identifier": "FZ",
				"latitude": 37.45036111110822,
				"longitude": 121.17919444441796,
				"pointId": 1675,
				"pointName": "屯里"
			}, {
				"code": "LX",
				"latitude": 23.12722222208977,
				"longitude": 114.14222222268582,
				"pointId": 1676,
				"pointName": "P270"
			}, {
				"code": "lt",
				"identifier": "NX",
				"latitude": 36.32833333313465,
				"longitude": 120.353333333383,
				"pointId": 1679,
				"pointName": "流亭"
			}, {
				"code": "OMLIP",
				"latitude": 27.7105555554231,
				"longitude": 104.28638888895512,
				"pointId": 1680,
				"pointName": "OMLIP"
			}, {
				"code": "jl",
				"latitude": 22.625,
				"longitude": 113.32833333313465,
				"pointId": 1682,
				"pointName": "鸡笼"
			}, {
				"code": "P230",
				"latitude": 29.91138888895512,
				"longitude": 117.08333333333333,
				"pointId": 1683,
				"pointName": "P230"
			}, {
				"code": "P231",
				"latitude": 29.8933333337307,
				"longitude": 117.20416666666667,
				"pointId": 1684,
				"pointName": "P231"
			}, {
				"code": "BN",
				"identifier": "ZJ",
				"latitude": 31.94027777761221,
				"longitude": 119.71138888895511,
				"pointId": 1685,
				"pointName": "奔牛"
			}, {
				"code": "KIBAS",
				"latitude": 22.13833333353201,
				"longitude": 113.24166666666666,
				"pointId": 1686,
				"pointName": "KIBAS"
			}, {
				"code": "P232",
				"latitude": 31.00500000019868,
				"longitude": 96.62333333343267,
				"pointId": 1687,
				"pointName": "P232"
			}, {
				"code": "LYG",
				"identifier": "LYG",
				"latitude": 34.59200000067552,
				"longitude": 118.88624999995032,
				"pointId": 1688,
				"pointName": "连云港"
			}, {
				"code": "P233",
				"latitude": 32.09722222189109,
				"longitude": 108.26388888855776,
				"pointId": 1689,
				"pointName": "P233"
			}, {
				"code": "LQ",
				"identifier": "FK",
				"latitude": 28.62361111094554,
				"longitude": 121.46111111144225,
				"pointId": 1691,
				"pointName": "路桥"
			}, {
				"code": "P68",
				"latitude": 39.875,
				"longitude": 124.14166666666667,
				"pointId": 1692,
				"pointName": "P68"
			}, {
				"code": "P234",
				"latitude": 31.9,
				"longitude": 109.51666666666667,
				"pointId": 1693,
				"pointName": "P234"
			}, {
				"code": "P235",
				"latitude": 31.075,
				"longitude": 109.88333333333334,
				"pointId": 1694,
				"pointName": "P235"
			}, {
				"code": "ONEMI",
				"latitude": 25.75105555554231,
				"longitude": 110.6079722225666,
				"pointId": 1695,
				"pointName": "ONEMI"
			}, {
				"code": "LS",
				"identifier": "BK",
				"latitude": 29.89597222208977,
				"longitude": 121.33408333336314,
				"pointId": 1696,
				"pointName": "栎社"
			}, {
				"code": "P105",
				"latitude": 44.81000000039737,
				"longitude": 123.075,
				"pointId": 1697,
				"pointName": "P105"
			}, {
				"code": "OSIKA",
				"latitude": 22.85527777771155,
				"longitude": 110.55277777786056,
				"pointId": 1698,
				"pointName": "OSIKA"
			}, {
				"code": "P236",
				"latitude": 29.16666666666667,
				"longitude": 121.06666666666666,
				"pointId": 1699,
				"pointName": "P236"
			}, {
				"code": "P237",
				"latitude": 28.62333333343268,
				"longitude": 121.11333333353201,
				"pointId": 1702,
				"pointName": "P237"
			}, {
				"code": "ymt",
				"latitude": 45.66166666646799,
				"longitude": 121.99166666666666,
				"pointId": 1703,
				"pointName": "野马图"
			}, {
				"code": "P238",
				"latitude": 41.575,
				"longitude": 121.18333333333334,
				"pointId": 1704,
				"pointName": "P238"
			}, {
				"code": "ds",
				"identifier": "KN",
				"latitude": 27.74499999980132,
				"longitude": 120.6516666666915,
				"pointId": 1705,
				"pointName": "东山"
			}, {
				"code": "tn",
				"latitude": 45.34166666666667,
				"longitude": 122.77833333313465,
				"pointId": 1708,
				"pointName": "洮南"
			}, {
				"code": "AKTOB",
				"latitude": 39.58194444477558,
				"longitude": 96.26722222225119,
				"pointId": 1709,
				"pointName": "AKTOB"
			}, {
				"code": "OGOMO",
				"latitude": 30.8516666666915,
				"longitude": 105.00416666666666,
				"pointId": 1710,
				"pointName": "OGOMO"
			}, {
				"code": "YW",
				"identifier": "YEU",
				"latitude": 29.33941666632891,
				"longitude": 120.03272222181161,
				"pointId": 1711,
				"pointName": "义乌"
			}, {
				"code": "XY",
				"latitude": 42.73666666671634,
				"longitude": 124.71666666666667,
				"pointId": 1712,
				"pointName": "西丰"
			}, {
				"code": "OTABO",
				"latitude": 44.45416666666667,
				"longitude": 123.91499999960264,
				"pointId": 1713,
				"pointName": "OTABO"
			}, {
				"code": "UPDOP",
				"latitude": 38.97666666706403,
				"longitude": 97.7433333337307,
				"pointId": 1714,
				"pointName": "UPDOP"
			}, {
				"code": "P242",
				"latitude": 36.81611111064752,
				"longitude": 102.91194444398086,
				"pointId": 1715,
				"pointName": "P242"
			}, {
				"code": "qps",
				"latitude": 42.99166666666667,
				"longitude": 126.04166666666667,
				"pointId": 1716,
				"pointName": "切磐石"
			}, {
				"code": "REMIM",
				"latitude": 28.85888888935248,
				"longitude": 120.74000000009934,
				"pointId": 1717,
				"pointName": "REMIM"
			}, {
				"code": "qylx",
				"latitude": 43.69833333293597,
				"longitude": 126.06833333335817,
				"pointId": 1718,
				"pointName": "切一拉溪"
			}, {
				"code": "qdh",
				"latitude": 43.17833333313465,
				"longitude": 128.11166666646798,
				"pointId": 1720,
				"pointName": "切敦化"
			}, {
				"code": "PAMDA",
				"latitude": 38.803333333383,
				"longitude": 119.06166666646799,
				"pointId": 1723,
				"pointName": "PAMDA"
			}, {
				"code": "tz",
				"latitude": 30.003333333383,
				"longitude": 93.075,
				"pointId": 1724,
				"pointName": "TAPUN"
			}, {
				"code": "CX",
				"latitude": 25.02777777810892,
				"longitude": 101.52972222268582,
				"pointId": 1725,
				"pointName": "P73"
			}, {
				"code": "PIKAS",
				"latitude": 32.16666666666666,
				"longitude": 120.73333333333333,
				"pointId": 1726,
				"pointName": "PIKAS"
			}, {
				"code": "P76",
				"latitude": 33.85333333338301,
				"longitude": 93.30527777771155,
				"pointId": 1727,
				"pointName": "P76"
			}, {
				"code": "PIMOL",
				"latitude": 32.24583333333333,
				"longitude": 119.76166666646799,
				"pointId": 1730,
				"pointName": "PIMOL"
			}, {
				"code": "ELASU",
				"latitude": 23.98694444447756,
				"longitude": 101.7894444445769,
				"pointId": 1731,
				"pointName": "ELASU"
			}, {
				"code": "PINOT",
				"latitude": 31.45,
				"longitude": 122.45,
				"pointId": 1732,
				"pointName": "PINOT"
			}, {
				"code": "AQ",
				"identifier": "PA",
				"latitude": 30.54833333293597,
				"longitude": 116.9788888891538,
				"pointId": 1733,
				"pointName": "安庆"
			}, {
				"code": "lp",
				"latitude": 30.68000000019868,
				"longitude": 107.78666666671634,
				"pointId": 1734,
				"pointName": "梁平"
			}, {
				"code": "POMOK",
				"latitude": 31.45,
				"longitude": 121.11666666666666,
				"pointId": 1735,
				"pointName": "POMOK"
			}, {
				"code": "P78",
				"latitude": 29.02833333313465,
				"longitude": 105.1,
				"pointId": 1736,
				"pointName": "P78"
			}, {
				"code": "NT",
				"identifier": "NTG",
				"latitude": 32.0982777774334,
				"longitude": 120.97924999992053,
				"pointId": 1737,
				"pointName": "南通"
			}, {
				"code": "HXS",
				"latitude": 30.31833333335817,
				"longitude": 104.08666666671634,
				"pointId": 1738,
				"pointName": "ONIKI"
			}, {
				"code": "LIGHT",
				"latitude": 44.5,
				"longitude": 91.25,
				"pointId": 1740,
				"pointName": "LIGHT"
			}, {
				"code": "ZBGJD",
				"latitude": 36.94166666666667,
				"longitude": 75.40833333333333,
				"pointId": 1741,
				"pointName": "PURPA"
			}, {
				"code": "TZS",
				"latitude": 30.6433333337307,
				"longitude": 104.13000000019868,
				"pointId": 1742,
				"pointName": "OMGUS"
			}, {
				"code": "WYS",
				"identifier": "WYS",
				"latitude": 27.67861111064752,
				"longitude": 117.9894444445769,
				"pointId": 1743,
				"pointName": "武夷山"
			}, {
				"code": "SABED",
				"latitude": 28.33000000019868,
				"longitude": 105.87388888895512,
				"pointId": 1746,
				"pointName": "SABED"
			}, {
				"code": "SADLI",
				"latitude": 31.83000000019868,
				"longitude": 125.0,
				"pointId": 1747,
				"pointName": "SADLI"
			}, {
				"code": "lc",
				"latitude": 23.8816666662693,
				"longitude": 100.08833333353202,
				"pointId": 1751,
				"pointName": "临沧"
			}, {
				"code": "PAPA",
				"latitude": 21.97833333313465,
				"longitude": 113.65666666676601,
				"pointId": 1757,
				"pointName": "PAPA"
			}, {
				"code": "zlgjd",
				"latitude": 21.19166666666667,
				"longitude": 101.62333333343267,
				"pointId": 1758,
				"pointName": "SAGAG"
			}, {
				"code": "QZ",
				"identifier": "SR",
				"latitude": 28.84000000009934,
				"longitude": 118.68833333353201,
				"pointId": 1759,
				"pointName": "衢州"
			}, {
				"code": "SAGUT",
				"latitude": 35.0,
				"longitude": 120.76694444445893,
				"pointId": 1760,
				"pointName": "SAGUT"
			}, {
				"code": "SAMAS",
				"latitude": 20.50500000019868,
				"longitude": 110.49499999980132,
				"pointId": 1762,
				"pointName": "SAMAS"
			}, {
				"code": "SANKO",
				"latitude": 38.25,
				"longitude": 122.453333333383,
				"pointId": 1765,
				"pointName": "SANKO"
			}, {
				"code": "SARIN",
				"latitude": 46.86499999960264,
				"longitude": 82.88833333353202,
				"pointId": 1766,
				"pointName": "SARIN"
			}, {
				"code": "SIKOU",
				"latitude": 20.8433333337307,
				"longitude": 111.5,
				"pointId": 1768,
				"pointName": "SIKOU"
			}, {
				"code": "SUBUL",
				"latitude": 32.32749999960264,
				"longitude": 106.71027777791024,
				"pointId": 1769,
				"pointName": "SUBUL"
			}, {
				"code": "SUPAR",
				"latitude": 30.0230555554231,
				"longitude": 120.85805555532376,
				"pointId": 1770,
				"pointName": "SUPAR"
			}, {
				"code": "WH",
				"identifier": "WEH",
				"latitude": 37.18424999999503,
				"longitude": 122.22522222201029,
				"pointId": 1772,
				"pointName": "威海"
			}, {
				"code": "SIERA",
				"latitude": 21.98500000002484,
				"longitude": 113.55333333338301,
				"pointId": 1773,
				"pointName": "SIERA"
			}, {
				"code": "hsz",
				"identifier": "SF",
				"latitude": 36.94499999980132,
				"longitude": 122.26166666646799,
				"pointId": 1774,
				"pointName": "黄山镇"
			}, {
				"code": "ZHGJD",
				"latitude": 43.50027777779226,
				"longitude": 80.73305555582047,
				"pointId": 1775,
				"pointName": "RULAD"
			}, {
				"code": "ROMEO",
				"latitude": 21.86333333353202,
				"longitude": 113.44833333293597,
				"pointId": 1776,
				"pointName": "ROMEO"
			}, {
				"code": "RUPOX",
				"latitude": 27.12722222208977,
				"longitude": 120.1875,
				"pointId": 1778,
				"pointName": "RUPOX"
			}, {
				"code": "TAMOT",
				"latitude": 22.35833333333333,
				"longitude": 113.86666666666666,
				"pointId": 1779,
				"pointName": "TAMOT"
			}, {
				"code": "TEPOD",
				"latitude": 47.80194444445272,
				"longitude": 122.76944444452722,
				"pointId": 1780,
				"pointName": "TEPOD"
			}, {
				"code": "WF",
				"identifier": "WFG",
				"latitude": 36.64555555582047,
				"longitude": 119.12138888885578,
				"pointId": 1781,
				"pointName": "潍坊"
			}, {
				"code": "zegjd",
				"latitude": 49.63333333333333,
				"longitude": 117.36666666666666,
				"pointId": 1782,
				"pointName": "TELOK"
			}, {
				"code": "JJ",
				"identifier": "JIU",
				"latitude": 29.4586111108462,
				"longitude": 115.78500000002484,
				"pointId": 1784,
				"pointName": "九江"
			}, {
				"code": "TEBUS",
				"latitude": 47.41833333335817,
				"longitude": 90.46166666646799,
				"pointId": 1785,
				"pointName": "TEBUS"
			}, {
				"code": "ZYGJD",
				"latitude": 22.175,
				"longitude": 106.675,
				"pointId": 1786,
				"pointName": "TEBAK"
			}, {
				"code": "TOGUG",
				"latitude": 29.2,
				"longitude": 122.53333333333333,
				"pointId": 1788,
				"pointName": "TOGUG"
			}, {
				"code": "TOMUK",
				"latitude": 38.71666666666667,
				"longitude": 124.0,
				"pointId": 1790,
				"pointName": "TOMUK"
			}, {
				"code": "TOREG",
				"latitude": 31.35833333333333,
				"longitude": 106.06333333353201,
				"pointId": 1793,
				"pointName": "TOREG"
			}, {
				"code": "dwz",
				"identifier": "YK",
				"latitude": 39.19022222210963,
				"longitude": 116.57366666694482,
				"pointId": 1794,
				"pointName": "大王庄"
			}, {
				"code": "UDINO",
				"latitude": 34.82249999990066,
				"longitude": 117.80333333338301,
				"pointId": 1795,
				"pointName": "UDINO"
			}, {
				"code": "UDOLA",
				"latitude": 30.6016666666915,
				"longitude": 119.92833333313465,
				"pointId": 1796,
				"pointName": "UDOLA"
			}, {
				"code": "DWZ",
				"identifier": "VYK",
				"latitude": 39.19305555522442,
				"longitude": 116.57277777791023,
				"pointId": 1797,
				"pointName": "大王庄"
			}, {
				"code": "GREEN2",
				"latitude": 43.34499999980132,
				"longitude": 91.48500000002484,
				"pointId": 1798,
				"pointName": "GREEN2"
			}, {
				"latitude": 39.08333333333334,
				"longitude": 92.3,
				"pointId": 1801,
				"pointName": "GREEN1"
			}, {
				"latitude": 38.16666666666666,
				"longitude": 92.5,
				"pointId": 1802,
				"pointName": "RED3"
			}, {
				"code": "UNTAN",
				"latitude": 32.20388888890545,
				"longitude": 120.2844444445024,
				"pointId": 1803,
				"pointName": "UNTAN"
			}, {
				"latitude": 37.0,
				"longitude": 95.5,
				"pointId": 1804,
				"pointName": "RED2"
			}, {
				"latitude": 36.1516666666915,
				"longitude": 97.63333333333334,
				"pointId": 1805,
				"pointName": "RED1"
			}, {
				"code": "SADAN",
				"latitude": 40.07666666706403,
				"longitude": 86.0,
				"pointId": 1806,
				"pointName": "SADAN"
			}, {
				"code": "JJ",
				"identifier": "JNJ",
				"latitude": 24.80305555562178,
				"longitude": 118.59527777731418,
				"pointId": 1807,
				"pointName": "晋江"
			}, {
				"code": "VISIN",
				"latitude": 35.42583333353202,
				"longitude": 106.38888888905446,
				"pointId": 1808,
				"pointName": "VISIN"
			}, {
				"code": "NOLEP",
				"latitude": 38.575,
				"longitude": 88.70833333333333,
				"pointId": 1809,
				"pointName": "NOLEP"
			}, {
				"code": "TONAX",
				"latitude": 37.75833333333333,
				"longitude": 90.18833333353201,
				"pointId": 1810,
				"pointName": "TONAX"
			}, {
				"code": "ZS",
				"identifier": "HSN",
				"latitude": 29.93255555530389,
				"longitude": 122.36472222208977,
				"pointId": 1811,
				"pointName": "舟山"
			}, {
				"code": "ZGZ",
				"identifier": "JB",
				"latitude": 39.04430555601915,
				"longitude": 116.1971944451332,
				"pointId": 1812,
				"pointName": "昝岗镇"
			}, {
				"latitude": 36.0,
				"longitude": 93.25833333333334,
				"pointId": 1813,
				"pointName": "LEBAK"
			}, {
				"code": "XEBUL",
				"latitude": 24.28333333333334,
				"longitude": 114.85,
				"pointId": 1815,
				"pointName": "XEBUL"
			}, {
				"code": "MUMAN",
				"latitude": 34.10833333333333,
				"longitude": 96.5,
				"pointId": 1818,
				"pointName": "MUMAN"
			}, {
				"code": "HL",
				"identifier": "KM",
				"latitude": 40.38938888857762,
				"longitude": 115.49799999992052,
				"pointId": 1820,
				"pointName": "怀来"
			}, {
				"code": "LUVAR",
				"latitude": 32.6016666666915,
				"longitude": 99.0,
				"pointId": 1821,
				"pointName": "LUVAR"
			}, {
				"code": "XZ",
				"identifier": "XUZ",
				"latitude": 34.06083333293597,
				"longitude": 117.54861111144224,
				"pointId": 1823,
				"pointName": "徐州"
			}, {
				"latitude": 32.0,
				"longitude": 100.0,
				"pointId": 1824,
				"pointName": "SANLI"
			}, {
				"code": "PEXUN",
				"latitude": 30.9288888891538,
				"longitude": 100.0,
				"pointId": 1825,
				"pointName": "PEXUN"
			}, {
				"code": "THK",
				"identifier": "YV",
				"latitude": 40.73241666654746,
				"longitude": 116.63455555563172,
				"pointId": 1826,
				"pointName": "汤河口"
			}, {
				"code": "YJ",
				"identifier": "DO",
				"latitude": 34.07583333353202,
				"longitude": 117.81277777751286,
				"pointId": 1827,
				"pointName": "姚集"
			}, {
				"code": "LEVBA",
				"latitude": 27.94888888895512,
				"longitude": 100.0,
				"pointId": 1828,
				"pointName": "LEVBA"
			}, {
				"latitude": 26.0,
				"longitude": 100.0,
				"pointId": 1830,
				"pointName": "NIVUX"
			}, {
				"latitude": 25.04499999980132,
				"longitude": 100.28333333333333,
				"pointId": 1831,
				"pointName": "DONEN"
			}, {
				"code": "hr",
				"identifier": "OB",
				"latitude": 40.28733333324393,
				"longitude": 116.53377777778854,
				"pointId": 1832,
				"pointName": "怀柔"
			}, {
				"code": "LY",
				"identifier": "LNY",
				"latitude": 35.05086111109704,
				"longitude": 118.41416666706404,
				"pointId": 1833,
				"pointName": "临沂"
			}, {
				"code": "MAKUL",
				"latitude": 24.12194444437822,
				"longitude": 100.55583333323399,
				"pointId": 1834,
				"pointName": "MAKUL"
			}, {
				"code": "HR",
				"identifier": "HUR",
				"latitude": 40.3288888891538,
				"longitude": 116.74694444437822,
				"pointId": 1835,
				"pointName": "怀柔"
			}, {
				"code": "SGZ",
				"identifier": "VM",
				"latitude": 39.29563888907433,
				"longitude": 116.90261111110449,
				"pointId": 1836,
				"pointName": "石各庄"
			}, {
				"code": "HS",
				"identifier": "HSH",
				"latitude": 31.36955555553238,
				"longitude": 121.84536111056805,
				"pointId": 1837,
				"pointName": "横沙"
			}, {
				"code": "bt",
				"identifier": "PM",
				"latitude": 38.07516666650772,
				"longitude": 116.55283333336314,
				"pointId": 1842,
				"pointName": "泊头"
			}, {
				"code": "SY",
				"identifier": "XSY",
				"latitude": 30.93275000055631,
				"longitude": 121.87194444437822,
				"pointId": 1845,
				"pointName": "书院"
			}, {
				"code": "BT",
				"identifier": "BTO",
				"latitude": 38.10644444475572,
				"longitude": 116.57794444362322,
				"pointId": 1846,
				"pointName": "泊头"
			}, {
				"code": "SL",
				"identifier": "CTU",
				"latitude": 30.57247222214937,
				"longitude": 103.94177777767182,
				"pointId": 1847,
				"pointName": "双流"
			}, {
				"code": "LX",
				"identifier": "LUX",
				"latitude": 39.74066666662693,
				"longitude": 118.72786111136277,
				"pointId": 1848,
				"pointName": "滦县"
			}, {
				"code": "DD",
				"identifier": "DDG",
				"latitude": 40.25749999980132,
				"longitude": 124.2844444445024,
				"pointId": 1850,
				"pointName": "丹东"
			}, {
				"code": "CD",
				"identifier": "ZW",
				"latitude": 30.49861111144225,
				"longitude": 103.90983333388964,
				"pointId": 1851,
				"pointName": "成都"
			}, {
				"code": "WX",
				"identifier": "WXI",
				"latitude": 36.36213888923327,
				"longitude": 114.91752777776371,
				"pointId": 1852,
				"pointName": "魏县"
			}, {
				"code": "LTHXT",
				"identifier": "DF",
				"latitude": 39.94861111144225,
				"longitude": 124.24527777731419,
				"pointId": 1853,
				"pointName": "浪头"
			}, {
				"code": "KM",
				"identifier": "AM",
				"latitude": 24.94499999980132,
				"longitude": 102.71000000039736,
				"pointId": 1856,
				"pointName": "昆明"
			}, {
				"code": "cc",
				"identifier": "AQ",
				"latitude": 38.70500000019868,
				"longitude": 116.3016666666915,
				"pointId": 1857,
				"pointName": "蔡村"
			}, {
				"code": "yjdyt",
				"identifier": "AX",
				"latitude": 42.89499999980132,
				"longitude": 129.56333333353203,
				"pointId": 1858,
				"pointName": "延吉"
			}, {
				"code": "chnjt",
				"identifier": "CH",
				"latitude": 39.24166666666667,
				"longitude": 122.67833333313465,
				"pointId": 1859,
				"pointName": "长海"
			}, {
				"code": "WJB",
				"identifier": "RW",
				"latitude": 25.06833333335817,
				"longitude": 102.79499999980132,
				"pointId": 1860,
				"pointName": "巫家坝"
			}, {
				"code": "jlxnyt",
				"identifier": "RS",
				"latitude": 43.95333333338301,
				"longitude": 126.31166666646799,
				"pointId": 1861,
				"pointName": "吉林"
			}, {
				"code": "HST",
				"identifier": "QB",
				"latitude": 25.10666666676601,
				"longitude": 102.94000000009935,
				"pointId": 1862,
				"pointName": "浑水塘"
			}, {
				"code": "HS",
				"identifier": "HG",
				"latitude": 37.71775000008444,
				"longitude": 115.70597222199042,
				"pointId": 1863,
				"pointName": "衡水"
			}, {
				"code": "etzdbyt",
				"identifier": "UX",
				"latitude": 44.03000000019868,
				"longitude": 126.43166666626931,
				"pointId": 1864,
				"pointName": "二台子"
			}, {
				"code": "QQHE",
				"identifier": "NDG",
				"latitude": 47.24388888875644,
				"longitude": 123.92083333333333,
				"pointId": 1865,
				"pointName": "齐齐哈尔"
			}, {
				"code": "TMET",
				"identifier": "TMR",
				"latitude": 41.8443888882796,
				"longitude": 113.15250000009934,
				"pointId": 1867,
				"pointName": "土木尔台"
			}, {
				"code": "JZW",
				"identifier": "MSN",
				"latitude": 40.91605555514494,
				"longitude": 121.2612222224474,
				"pointId": 1868,
				"pointName": "锦州湾"
			}, {
				"code": "TJC",
				"identifier": "OS",
				"latitude": 29.85038888889055,
				"longitude": 106.84777777791024,
				"pointId": 1869,
				"pointName": "统景场"
			}, {
				"code": "LZ",
				"identifier": "DNC",
				"latitude": 36.54038888861736,
				"longitude": 103.61919444451729,
				"pointId": 1870,
				"pointName": "兰州"
			}, {
				"code": "CSQ",
				"identifier": "SHC",
				"latitude": 29.43027777771155,
				"longitude": 106.72972222268581,
				"pointId": 1871,
				"pointName": "长生桥"
			}, {
				"code": "YC",
				"identifier": "YHD",
				"latitude": 38.34816666742166,
				"longitude": 106.41158333321412,
				"pointId": 1872,
				"pointName": "银川"
			}, {
				"code": "EL",
				"identifier": "ERE",
				"latitude": 43.63986111134291,
				"longitude": 111.95522222220897,
				"pointId": 1874,
				"pointName": "二连"
			}, {
				"code": "HZHXT",
				"identifier": "WC",
				"latitude": 33.07166666686535,
				"longitude": 107.00833333333334,
				"pointId": 1875,
				"pointName": "汉中"
			}, {
				"code": "GY",
				"identifier": "KWE",
				"latitude": 26.52183333337307,
				"longitude": 106.79405555526415,
				"pointId": 1876,
				"pointName": "贵阳"
			}, {
				"code": "LC",
				"identifier": "SZ",
				"latitude": 40.5199444445471,
				"longitude": 112.4961111108462,
				"pointId": 1877,
				"pointName": "凉城"
			}, {
				"code": "AKHXT",
				"identifier": "UF",
				"latitude": 32.72894444465637,
				"longitude": 108.82194444437822,
				"pointId": 1878,
				"pointName": "安康"
			}, {
				"code": "DK",
				"identifier": "DKO",
				"latitude": 40.31299999952316,
				"longitude": 106.99886111120382,
				"pointId": 1880,
				"pointName": "磴口"
			}, {
				"code": "yl",
				"identifier": "LV",
				"latitude": 38.27000000004967,
				"longitude": 109.73000000019869,
				"pointId": 1881,
				"pointName": "榆林"
			}, {
				"code": "ZT",
				"identifier": "ZAT",
				"latitude": 27.32183333337307,
				"longitude": 103.75347222213944,
				"pointId": 1882,
				"pointName": "昭通"
			}, {
				"code": "JYG",
				"identifier": "CHW",
				"latitude": 39.85630555599928,
				"longitude": 98.34769444465637,
				"pointId": 1883,
				"pointName": "嘉峪关"
			}, {
				"code": "ybl",
				"identifier": "DY",
				"latitude": 39.42000000004967,
				"longitude": 102.77749999960264,
				"pointId": 1884,
				"pointName": "雅布赖"
			}, {
				"code": "altdyt",
				"identifier": "VZ",
				"latitude": 47.72666666706403,
				"longitude": 88.16333333353201,
				"pointId": 1885,
				"pointName": "阿勒泰"
			}, {
				"code": "QBK",
				"identifier": "CD",
				"latitude": 40.01236111124356,
				"longitude": 115.80591666648785,
				"pointId": 1886,
				"pointName": "青白口"
			}, {
				"code": "klmyhxt",
				"identifier": "WP",
				"latitude": 45.56166666646799,
				"longitude": 84.91166666646798,
				"pointId": 1887,
				"pointName": "克拉玛依"
			}, {
				"code": "SH",
				"identifier": "CU",
				"latitude": 40.12316666642825,
				"longitude": 116.37313888867696,
				"pointId": 1888,
				"pointName": "沙河"
			}, {
				"code": "BS",
				"identifier": "BSD",
				"latitude": 25.05716666628917,
				"longitude": 99.17122222234805,
				"pointId": 1890,
				"pointName": "保山"
			}, {
				"code": "LARAD",
				"latitude": 39.14666666686535,
				"longitude": 114.603333333383,
				"pointId": 1891,
				"pointName": "LARAD"
			}, {
				"code": "kelxnyt",
				"identifier": "MC",
				"latitude": 41.63833333353202,
				"longitude": 86.075,
				"pointId": 1892,
				"pointName": "库尔勒"
			}, {
				"code": "HX",
				"identifier": "SB",
				"latitude": 27.73874999980132,
				"longitude": 102.16619444390138,
				"pointId": 1893,
				"pointName": "河西"
			}, {
				"code": "PIDOX",
				"latitude": 41.23500000002483,
				"longitude": 116.625,
				"pointId": 1894,
				"pointName": "PIDOX"
			}, {
				"code": "KC",
				"identifier": "KCA",
				"latitude": 41.71247222224871,
				"longitude": 82.99341666599115,
				"pointId": 1895,
				"pointName": "库车"
			}, {
				"code": "LS",
				"identifier": "LXA",
				"latitude": 29.29819444417954,
				"longitude": 90.99699999988079,
				"pointId": 1896,
				"pointName": "拉萨"
			}, {
				"code": "KS",
				"identifier": "KHG",
				"latitude": 39.54450000027816,
				"longitude": 76.0213333333532,
				"pointId": 1898,
				"pointName": "喀什"
			}, {
				"code": "nc",
				"identifier": "YZ",
				"latitude": 30.69166666666667,
				"longitude": 106.1016666666915,
				"pointId": 1899,
				"pointName": "南充"
			}, {
				"code": "HT",
				"identifier": "HTN",
				"latitude": 37.034583333383,
				"longitude": 79.86925000001987,
				"pointId": 1900,
				"pointName": "和田"
			}, {
				"code": "DZ",
				"identifier": "DAX",
				"latitude": 31.15708333353202,
				"longitude": 107.44011111110449,
				"pointId": 1901,
				"pointName": "达州"
			}, {
				"code": "yadyt",
				"identifier": "YU",
				"latitude": 36.63833333353202,
				"longitude": 109.60500000019869,
				"pointId": 1902,
				"pointName": "延安"
			}, {
				"code": "XT",
				"identifier": "KHN",
				"latitude": 28.4286666671435,
				"longitude": 115.92202777763208,
				"pointId": 1903,
				"pointName": "向塘"
			}, {
				"code": "tr",
				"latitude": 27.86166666646799,
				"longitude": 109.2933333337307,
				"pointId": 1904,
				"pointName": "铜仁西南远台"
			}, {
				"code": "aksxyt",
				"identifier": "XF",
				"latitude": 41.26666666666667,
				"longitude": 80.22833333313466,
				"pointId": 1905,
				"pointName": "阿克苏"
			}, {
				"code": "SASAN",
				"latitude": 31.5894444445769,
				"longitude": 120.31944444452724,
				"pointId": 1906,
				"pointName": "SASAN"
			}, {
				"code": "WLMQ",
				"identifier": "URC",
				"latitude": 43.90900000035763,
				"longitude": 87.47325000017881,
				"pointId": 1907,
				"pointName": "乌鲁木齐"
			}, {
				"code": "GLB",
				"identifier": "JHG",
				"latitude": 21.86172222197056,
				"longitude": 100.93558333342274,
				"pointId": 1908,
				"pointName": "橄榄坝"
			}, {
				"code": "gemdyt",
				"identifier": "CO",
				"latitude": 36.4016666666915,
				"longitude": 94.8816666662693,
				"pointId": 1909,
				"pointName": "格尔木"
			}, {
				"code": "AD",
				"identifier": "AND",
				"latitude": 30.25505555570125,
				"longitude": 121.22050000006953,
				"pointId": 1910,
				"pointName": "庵东"
			}, {
				"code": "qydnyt",
				"identifier": "FY",
				"latitude": 35.75833333333333,
				"longitude": 107.64499999980131,
				"pointId": 1911,
				"pointName": "庆阳"
			}, {
				"code": "MS",
				"identifier": "LUM",
				"latitude": 24.40988888839881,
				"longitude": 98.53819444427887,
				"pointId": 1912,
				"pointName": "芒市"
			}, {
				"code": "QM",
				"identifier": "QIM",
				"latitude": 38.14947222173214,
				"longitude": 85.5344444445024,
				"pointId": 1913,
				"pointName": "且末"
			}, {
				"code": "YB",
				"identifier": "YBN",
				"latitude": 28.7995833337307,
				"longitude": 104.5558055554827,
				"pointId": 1914,
				"pointName": "宜宾"
			}, {
				"code": "DH",
				"identifier": "DNH",
				"latitude": 40.16380555530389,
				"longitude": 94.83605555569132,
				"pointId": 1916,
				"pointName": "敦煌"
			}, {
				"code": "BD",
				"identifier": "DCH",
				"latitude": 30.5564722220103,
				"longitude": 97.10974999964237,
				"pointId": 1917,
				"pointName": "邦达"
			}, {
				"code": "dhxyt",
				"identifier": "GC",
				"latitude": 40.14833333293597,
				"longitude": 94.70833333333333,
				"pointId": 1918,
				"pointName": "敦煌"
			}, {
				"code": "PX",
				"identifier": "DPX",
				"latitude": 34.27711111108462,
				"longitude": 117.99924999972184,
				"pointId": 1919,
				"pointName": "邳县"
			}, {
				"code": "DL",
				"identifier": "DAL",
				"latitude": 25.64444444477558,
				"longitude": 100.32480555524428,
				"pointId": 1920,
				"pointName": "大理"
			}, {
				"code": "BTJ",
				"identifier": "OF",
				"latitude": 32.67244444439809,
				"longitude": 118.57919444441795,
				"pointId": 1922,
				"pointName": "半塔集"
			}, {
				"code": "fhhxt",
				"identifier": "GF",
				"latitude": 34.55500000019868,
				"longitude": 108.63000000019868,
				"pointId": 1923,
				"pointName": "烽火"
			}, {
				"code": "SYHXT",
				"identifier": "OD",
				"latitude": 34.60044444445521,
				"longitude": 108.91663888891539,
				"pointId": 1926,
				"pointName": "三原"
			}, {
				"code": "LS",
				"identifier": "GS",
				"latitude": 31.65027777779227,
				"longitude": 119.0402777776122,
				"pointId": 1929,
				"pointName": "溧水"
			}, {
				"code": "xaxnjt",
				"identifier": "G",
				"latitude": 34.4316666662693,
				"longitude": 108.72833333313466,
				"pointId": 1930,
				"pointName": "西安"
			}, {
				"code": "XN",
				"identifier": "XNN",
				"latitude": 36.52822222212951,
				"longitude": 102.03152777751286,
				"pointId": 1931,
				"pointName": "西宁"
			}, {
				"code": "nx",
				"identifier": "SX",
				"latitude": 30.88666666671634,
				"longitude": 120.41666666666667,
				"pointId": 1932,
				"pointName": "南浔"
			}, {
				"code": "LZ",
				"identifier": "LZH",
				"latitude": 28.85286111111442,
				"longitude": 105.3856666666766,
				"pointId": 1933,
				"pointName": "泸州"
			}, {
				"code": "tcxjt",
				"identifier": "O",
				"latitude": 46.66000000039737,
				"longitude": 83.37000000004967,
				"pointId": 1934,
				"pointName": "塔城"
			}, {
				"code": "dz",
				"latitude": 29.6316666662693,
				"longitude": 105.75666666676601,
				"pointId": 1936,
				"pointName": "大足"
			}, {
				"code": "tl",
				"identifier": "CZ",
				"latitude": 29.76499999960264,
				"longitude": 119.65833333333333,
				"pointId": 1937,
				"pointName": "桐庐"
			}, {
				"code": "sz",
				"identifier": "SZX",
				"latitude": 22.64666666686535,
				"longitude": 113.8016666666915,
				"pointId": 1938,
				"pointName": "深圳"
			}, {
				"code": "SY",
				"identifier": "SYX",
				"latitude": 18.30877777834733,
				"longitude": 109.17183333337307,
				"pointId": 1939,
				"pointName": "三亚"
			}, {
				"code": "TL",
				"identifier": "TOL",
				"latitude": 29.76527777810891,
				"longitude": 119.66083333293597,
				"pointId": 1940,
				"pointName": "桐庐"
			}, {
				"code": "BL",
				"identifier": "WL",
				"latitude": 18.48997222234805,
				"longitude": 109.40416666666667,
				"pointId": 1942,
				"pointName": "抱龙"
			}, {
				"code": "DQ",
				"identifier": "ZHD",
				"latitude": 27.78905555556218,
				"longitude": 99.67658333381017,
				"pointId": 1943,
				"pointName": "迪庆"
			}, {
				"code": "zhl",
				"identifier": "PH",
				"latitude": 23.36499999960264,
				"longitude": 113.37000000004967,
				"pointId": 1944,
				"pointName": "竹料"
			}, {
				"code": "SR",
				"identifier": "SHR",
				"latitude": 28.41766666664432,
				"longitude": 117.96877777775128,
				"pointId": 1945,
				"pointName": "上饶"
			}, {
				"code": "ZJJ",
				"identifier": "DYG",
				"latitude": 29.09419444402059,
				"longitude": 110.4064722220103,
				"pointId": 1946,
				"pointName": "张家界"
			}, {
				"code": "bydbyt",
				"identifier": "QX",
				"latitude": 23.25500000019868,
				"longitude": 113.30500000019869,
				"pointId": 1947,
				"pointName": "白云"
			}, {
				"code": "YH",
				"identifier": "BZ",
				"latitude": 28.1,
				"longitude": 119.56000000039737,
				"pointId": 1948,
				"pointName": "云和"
			}, {
				"code": "WZ",
				"identifier": "KD",
				"latitude": 23.38197222153346,
				"longitude": 111.24791666666667,
				"pointId": 1949,
				"pointName": "梧州"
			}, {
				"code": "HH",
				"identifier": "CSX",
				"latitude": 28.20533333371083,
				"longitude": 113.21591666638851,
				"pointId": 1950,
				"pointName": "黄花"
			}, {
				"code": "NF",
				"identifier": "NF",
				"latitude": 27.20941666662693,
				"longitude": 116.55997222264608,
				"pointId": 1951,
				"pointName": "南丰"
			}, {
				"code": "ps",
				"latitude": 30.26666666666667,
				"longitude": 103.853333333383,
				"pointId": 1952,
				"pointName": "彭山"
			}, {
				"code": "LCHXT",
				"identifier": "SV",
				"latitude": 28.21750000001242,
				"longitude": 113.34722222189109,
				"pointId": 1953,
				"pointName": "芦冲"
			}, {
				"code": "hk",
				"identifier": "RL",
				"latitude": 30.6316666662693,
				"longitude": 114.28000000019868,
				"pointId": 1954,
				"pointName": "汉口"
			}, {
				"code": "TH",
				"identifier": "WHA",
				"latitude": 30.78305555582046,
				"longitude": 114.2045277774334,
				"pointId": 1955,
				"pointName": "天河"
			}, {
				"code": "SY",
				"identifier": "SEY",
				"latitude": 41.64027777761221,
				"longitude": 123.47972222268581,
				"pointId": 1956,
				"pointName": "沈阳"
			}, {
				"code": "xjd",
				"identifier": "CF",
				"latitude": 35.9516666666915,
				"longitude": 120.2316666662693,
				"pointId": 1958,
				"pointName": "薛家岛"
			}, {
				"code": "HBH",
				"identifier": "DHB",
				"latitude": 30.6967777778705,
				"longitude": 113.97258333315452,
				"pointId": 1959,
				"pointName": "荷苞湖"
			}, {
				"code": "DYJ",
				"identifier": "PU",
				"latitude": 41.50777777781089,
				"longitude": 123.29250000019869,
				"pointId": 1960,
				"pointName": "东羊角"
			}, {
				"code": "JY",
				"identifier": "GU",
				"latitude": 35.10849999984105,
				"longitude": 112.52858333388964,
				"pointId": 1961,
				"pointName": "济源"
			}, {
				"code": "THBCYT",
				"identifier": "HG",
				"latitude": 30.92358333319426,
				"longitude": 114.35144444443286,
				"pointId": 1962,
				"pointName": "天河"
			}, {
				"code": "LHK",
				"identifier": "JO",
				"latitude": 32.33541666666667,
				"longitude": 111.70958333313465,
				"pointId": 1963,
				"pointName": "老河口"
			}, {
				"code": "WBG",
				"identifier": "KY",
				"latitude": 41.70611111124357,
				"longitude": 123.74527777731419,
				"pointId": 1964,
				"pointName": "王滨沟"
			}, {
				"code": "XJD",
				"identifier": "XDX",
				"latitude": 35.97722222208977,
				"longitude": 120.29111111114422,
				"pointId": 1965,
				"pointName": "薛家岛"
			}, {
				"code": "SX",
				"identifier": "YIH",
				"latitude": 30.56197222173214,
				"longitude": 111.47761111160119,
				"pointId": 1966,
				"pointName": "三峡"
			}, {
				"code": "THXNJT",
				"identifier": "D",
				"latitude": 30.76527777810891,
				"longitude": 114.18916666656733,
				"pointId": 1967,
				"pointName": "天河西南近台"
			}, {
				"code": "THDBJT",
				"identifier": "H",
				"latitude": 30.80250000009934,
				"longitude": 114.22749999960264,
				"pointId": 1968,
				"pointName": "天河东北近台"
			}, {
				"code": "hc",
				"identifier": "CX",
				"latitude": 37.66000000039737,
				"longitude": 120.54000000009934,
				"pointId": 1971,
				"pointName": "黄城"
			}, {
				"code": "XZ",
				"identifier": "CGO",
				"latitude": 34.51683333334513,
				"longitude": 113.84177777767181,
				"pointId": 1972,
				"pointName": "新郑"
			}, {
				"code": "HEB",
				"identifier": "HRB",
				"latitude": 45.62777777810891,
				"longitude": 126.2586111108462,
				"pointId": 1973,
				"pointName": "哈尔滨"
			}, {
				"code": "am",
				"identifier": "MCU",
				"latitude": 22.13666666671634,
				"longitude": 113.59499999980132,
				"pointId": 1974,
				"pointName": "澳门"
			}, {
				"code": "NN",
				"identifier": "WUY",
				"latitude": 22.58616666669647,
				"longitude": 108.14986111124357,
				"pointId": 1975,
				"pointName": "南宁"
			}, {
				"code": "HC",
				"identifier": "HCH",
				"latitude": 37.65361111114422,
				"longitude": 120.5441666662693,
				"pointId": 1976,
				"pointName": "黄城"
			}, {
				"code": "SQ",
				"identifier": "LS",
				"latitude": 45.44899999996027,
				"longitude": 126.04655555486679,
				"pointId": 1977,
				"pointName": "水泉"
			}, {
				"code": "HGHXT",
				"identifier": "LH",
				"latitude": 21.13333333333333,
				"longitude": 110.33466666676104,
				"pointId": 1978,
				"pointName": "湖光"
			}, {
				"code": "DL",
				"identifier": "DBL",
				"latitude": 38.96305555601915,
				"longitude": 121.57083333333334,
				"pointId": 1979,
				"pointName": "大连"
			}, {
				"code": "JZ",
				"identifier": "ZAO",
				"latitude": 22.24630555609862,
				"longitude": 113.61294444402058,
				"pointId": 1980,
				"pointName": "九洲"
			}, {
				"code": "LC",
				"identifier": "PV",
				"latitude": 25.57111111134291,
				"longitude": 116.69833333293597,
				"pointId": 1981,
				"pointName": "连城"
			}, {
				"code": "DMLT",
				"identifier": "MLT",
				"latitude": 20.15269444435835,
				"longitude": 110.67455555548271,
				"pointId": 1982,
				"pointName": "东木栏头"
			}, {
				"code": "SZ",
				"identifier": "JF",
				"latitude": 29.59916666646798,
				"longitude": 120.81388888855776,
				"pointId": 1983,
				"pointName": "嵊州"
			}, {
				"identifier": "TD",
				"latitude": 22.25,
				"longitude": 114.29000000009934,
				"pointId": 1984,
				"pointName": "TUNG LUNG"
			}, {
				"code": "hkxyt",
				"identifier": "JK",
				"latitude": 20.02166666686535,
				"longitude": 110.26333333353202,
				"pointId": 1985,
				"pointName": "海口"
			}, {
				"code": "LY",
				"identifier": "FD",
				"latitude": 36.93099999924501,
				"longitude": 120.63055555522442,
				"pointId": 1986,
				"pointName": "莱阳"
			}, {
				"code": "JMS",
				"identifier": "JMU",
				"latitude": 46.84000000009934,
				"longitude": 130.46361111104488,
				"pointId": 1987,
				"pointName": "佳木斯"
			}, {
				"code": "GM",
				"identifier": "YO",
				"latitude": 36.43986111134291,
				"longitude": 119.69000000009935,
				"pointId": 1989,
				"pointName": "高密"
			}, {
				"code": "ES",
				"identifier": "ENH",
				"latitude": 30.29286111096541,
				"longitude": 109.60019444444528,
				"pointId": 1990,
				"pointName": "恩施"
			}, {
				"code": "DRJHXT",
				"identifier": "VQ",
				"latitude": 25.56066666742166,
				"longitude": 110.47775000035763,
				"pointId": 1991,
				"pointName": "大榕江"
			}, {
				"code": "ZZ",
				"identifier": "AR",
				"latitude": 36.725,
				"longitude": 116.91805555559695,
				"pointId": 1992,
				"pointName": "张庄"
			}, {
				"code": "LZ",
				"identifier": "LIU",
				"latitude": 24.20163888894022,
				"longitude": 109.39200000067552,
				"pointId": 1993,
				"pointName": "柳州"
			}, {
				"code": "YFNCYT",
				"identifier": "JW",
				"latitude": 25.00722222228845,
				"longitude": 110.01777777783573,
				"pointId": 1994,
				"pointName": "永福"
			}, {
				"code": "NK",
				"identifier": "BHY",
				"latitude": 21.58500000002483,
				"longitude": 109.43302777806917,
				"pointId": 1995,
				"pointName": "南康"
			}, {
				"code": "WTBCYT",
				"identifier": "PA",
				"latitude": 25.40638888875644,
				"longitude": 110.0586111108462,
				"pointId": 1996,
				"pointName": "五通"
			}, {
				"code": "TS",
				"identifier": "TOS",
				"latitude": 34.09444444477558,
				"longitude": 117.19722222189108,
				"pointId": 1997,
				"pointName": "铜山"
			}, {
				"code": "CD",
				"identifier": "CD",
				"latitude": 28.84747222264608,
				"longitude": 111.62074999983112,
				"pointId": 1998,
				"pointName": "常德"
			}, {
				"code": "LY",
				"identifier": "LYA",
				"latitude": 34.7407500003775,
				"longitude": 112.39647222161292,
				"pointId": 1999,
				"pointName": "洛阳"
			}, {
				"code": "NYXNYT",
				"identifier": "ML",
				"latitude": 32.91833333335817,
				"longitude": 112.54888888895512,
				"pointId": 2002,
				"pointName": "南阳"
			}, {
				"code": "LSW",
				"identifier": "ZUH",
				"latitude": 22.22311111142238,
				"longitude": 113.46544444362323,
				"pointId": 2003,
				"pointName": "连胜围"
			}, {
				"code": "SS",
				"identifier": "UK",
				"latitude": 30.28833333353202,
				"longitude": 112.27166666686534,
				"pointId": 2004,
				"pointName": "沙市"
			}, {
				"code": "wfx",
				"identifier": "FR",
				"latitude": 30.60763888905446,
				"longitude": 104.48558333342274,
				"pointId": 2005,
				"pointName": "五凤溪"
			}, {
				"code": "CT",
				"identifier": "QU",
				"latitude": 24.17325000017882,
				"longitude": 116.09052777787049,
				"pointId": 2006,
				"pointName": "澄滩"
			}, {
				"code": "ST",
				"identifier": "SWA",
				"latitude": 23.43869444429874,
				"longitude": 116.76819444447756,
				"pointId": 2007,
				"pointName": "汕头"
			}, {
				"code": "QZ",
				"identifier": "DO",
				"latitude": 26.5433333337307,
				"longitude": 117.98444444450239,
				"pointId": 2008,
				"pointName": "青州"
			}, {
				"code": "XY",
				"identifier": "NO",
				"latitude": 32.07591666678588,
				"longitude": 112.27558333277702,
				"pointId": 2009,
				"pointName": "襄阳"
			}, {
				"code": "DHS",
				"identifier": "DHN",
				"latitude": 41.643555555741,
				"longitude": 122.11602777838706,
				"pointId": 2010,
				"pointName": "大虎山"
			}, {
				"code": "ky",
				"identifier": "FB",
				"latitude": 42.57000000004967,
				"longitude": 124.003333333383,
				"pointId": 2011,
				"pointName": "开原"
			}, {
				"code": "GL",
				"identifier": "UJ",
				"latitude": 21.92111111134291,
				"longitude": 113.29222222268581,
				"pointId": 2012,
				"pointName": "高栏"
			}, {
				"code": "KY",
				"identifier": "KYU",
				"latitude": 42.63294444382191,
				"longitude": 124.00788888881604,
				"pointId": 2013,
				"pointName": "开原"
			}, {
				"code": "DHS",
				"identifier": "KM",
				"latitude": 41.64036111086607,
				"longitude": 122.11424999932449,
				"pointId": 2016,
				"pointName": "大虎山"
			}, {
				"code": "dgs",
				"identifier": "JY",
				"latitude": 41.06499999960263,
				"longitude": 123.12000000004967,
				"pointId": 2019,
				"pointName": "大孤山"
			}, {
				"code": "HQ",
				"identifier": "IJ",
				"latitude": 47.86916666676601,
				"longitude": 134.64583333333334,
				"pointId": 2020,
				"pointName": "海青"
			}, {
				"code": "WFD",
				"identifier": "BM",
				"latitude": 39.65683333327373,
				"longitude": 121.7461111108462,
				"pointId": 2021,
				"pointName": "瓦房店"
			}, {
				"code": "df",
				"identifier": "LU",
				"latitude": 42.66666666666666,
				"longitude": 125.5516666666915,
				"pointId": 2022,
				"pointName": "东丰"
			}, {
				"code": "WQ",
				"identifier": "WQG",
				"latitude": 43.29441666702429,
				"longitude": 129.78600000018875,
				"pointId": 2023,
				"pointName": "汪清"
			}, {
				"code": "pz",
				"identifier": "XK",
				"latitude": 23.02166666686535,
				"longitude": 113.19166666666666,
				"pointId": 2024,
				"pointName": "平洲"
			}, {
				"code": "CY",
				"identifier": "CHG",
				"latitude": 41.53777777800958,
				"longitude": 120.43194444477558,
				"pointId": 2027,
				"pointName": "朝阳"
			}, {
				"code": "cybyt",
				"identifier": "FJ",
				"latitude": 41.58333333333334,
				"longitude": 120.42166666686535,
				"pointId": 2028,
				"pointName": "朝阳"
			}, {
				"code": "WFX",
				"identifier": "WFX",
				"latitude": 30.60530555546284,
				"longitude": 104.4907222221295,
				"pointId": 2029,
				"pointName": "五凤溪"
			}, {
				"code": "JGDQ",
				"identifier": "SP",
				"latitude": 50.37000000004967,
				"longitude": 124.11000000039736,
				"pointId": 2030,
				"pointName": "加格达奇"
			}, {
				"code": "yc",
				"identifier": "UG",
				"latitude": 47.7016666666915,
				"longitude": 128.82666666706402,
				"pointId": 2031,
				"pointName": "依春"
			}, {
				"code": "fjc",
				"identifier": "VW",
				"latitude": 29.93049999972185,
				"longitude": 104.3011944445471,
				"pointId": 2032,
				"pointName": "富家场"
			}, {
				"code": "dh",
				"identifier": "NG",
				"latitude": 43.36833333335817,
				"longitude": 128.2,
				"pointId": 2033,
				"pointName": "敦化"
			}, {
				"code": "hh",
				"identifier": "QD",
				"latitude": 50.1016666666915,
				"longitude": 127.33666666671634,
				"pointId": 2034,
				"pointName": "黑河"
			}, {
				"code": "FJC",
				"identifier": "FJC",
				"latitude": 29.92944444417953,
				"longitude": 104.30416666666666,
				"pointId": 2035,
				"pointName": "富家场"
			}, {
				"code": "mdjdbyt",
				"identifier": "QM",
				"latitude": 44.6016666666915,
				"longitude": 129.62166666686534,
				"pointId": 2036,
				"pointName": "牡丹江T"
			}, {
				"code": "CD",
				"identifier": "RG",
				"latitude": 31.14538888931275,
				"longitude": 97.17516666650772,
				"pointId": 2037,
				"pointName": "昌都"
			}, {
				"code": "FL",
				"identifier": "FLG",
				"latitude": 29.69869444469611,
				"longitude": 107.37680555582047,
				"pointId": 2038,
				"pointName": "涪陵"
			}, {
				"code": "qj",
				"identifier": "HQ",
				"latitude": 29.04819444417954,
				"longitude": 106.66391666630904,
				"pointId": 2039,
				"pointName": "綦江"
			}, {
				"code": "QJ",
				"identifier": "QJG",
				"latitude": 29.05072222221643,
				"longitude": 106.66408333381017,
				"pointId": 2040,
				"pointName": "綦江"
			}, {
				"code": "PZ",
				"identifier": "POU",
				"latitude": 23.0204722220699,
				"longitude": 113.19163888891538,
				"pointId": 2041,
				"pointName": "平洲"
			}, {
				"code": "sl",
				"identifier": "LQ",
				"latitude": 23.09166666666667,
				"longitude": 113.8516666666915,
				"pointId": 2042,
				"pointName": "石龙"
			}, {
				"code": "SL",
				"identifier": "SHL",
				"latitude": 23.09283333321412,
				"longitude": 113.85105555554232,
				"pointId": 2045,
				"pointName": "石龙"
			}, {
				"code": "CW",
				"identifier": "HO",
				"latitude": 35.2112222224474,
				"longitude": 107.77050000006953,
				"pointId": 2046,
				"pointName": "长武"
			}, {
				"code": "QX",
				"identifier": "QNX",
				"latitude": 27.04291666646799,
				"longitude": 106.02916666666667,
				"pointId": 2047,
				"pointName": "黔西"
			}, {
				"code": "yd",
				"identifier": "VB",
				"latitude": 24.20500000019868,
				"longitude": 113.41000000039736,
				"pointId": 2048,
				"pointName": "英德"
			}, {
				"code": "NS",
				"identifier": "RQ",
				"latitude": 33.32294444441796,
				"longitude": 108.31258333325385,
				"pointId": 2049,
				"pointName": "宁陕"
			}, {
				"code": "HLS",
				"identifier": "DS",
				"latitude": 30.20141666668157,
				"longitude": 106.84738888839881,
				"pointId": 2050,
				"pointName": "合流水"
			}, {
				"code": "YD",
				"identifier": "YIN",
				"latitude": 24.19163888891538,
				"longitude": 113.41580555637678,
				"pointId": 2051,
				"pointName": "英德"
			}, {
				"code": "gm",
				"identifier": "GM",
				"latitude": 23.53000000019868,
				"longitude": 99.39166666666667,
				"pointId": 2052,
				"pointName": "耿马"
			}, {
				"code": "gy",
				"identifier": "BH",
				"latitude": 23.07166666686535,
				"longitude": 112.48500000002484,
				"pointId": 2053,
				"pointName": "高要"
			}, {
				"code": "BS",
				"identifier": "BSE",
				"latitude": 23.89330555597941,
				"longitude": 106.64638888935248,
				"pointId": 2054,
				"pointName": "百色"
			}, {
				"code": "NS",
				"identifier": "NSH",
				"latitude": 33.32033333331346,
				"longitude": 108.31394444505374,
				"pointId": 2055,
				"pointName": "宁陕"
			}, {
				"code": "GY",
				"identifier": "GYA",
				"latitude": 23.07161111086607,
				"longitude": 112.48519444440802,
				"pointId": 2056,
				"pointName": "高要"
			}, {
				"code": "GM",
				"identifier": "GMA",
				"latitude": 23.52933333317439,
				"longitude": 99.40961111088593,
				"pointId": 2057,
				"pointName": "耿马"
			}, {
				"code": "YZ",
				"identifier": "ZS",
				"latitude": 34.2224166666468,
				"longitude": 108.85527777771155,
				"pointId": 2058,
				"pointName": "烟庄"
			}, {
				"code": "SX",
				"identifier": "RA",
				"latitude": 33.8782222221295,
				"longitude": 109.92902777791024,
				"pointId": 2060,
				"pointName": "商县"
			}, {
				"code": "LB",
				"identifier": "LBN",
				"latitude": 23.7644444445769,
				"longitude": 109.14555555582047,
				"pointId": 2061,
				"pointName": "来宾"
			}, {
				"code": "SX",
				"identifier": "SHX",
				"latitude": 33.8756388882796,
				"longitude": 109.93341666667257,
				"pointId": 2064,
				"pointName": "商县"
			}, {
				"code": "ZK",
				"identifier": "ZHO",
				"latitude": 33.66402777731419,
				"longitude": 114.65336111113429,
				"pointId": 2067,
				"pointName": "周口"
			}, {
				"code": "JN",
				"identifier": "QI",
				"latitude": 35.5236944441994,
				"longitude": 105.72102777759234,
				"pointId": 2068,
				"pointName": "静宁"
			}, {
				"code": "LX",
				"identifier": "ZN",
				"latitude": 24.52858333388964,
				"longitude": 103.74216666618983,
				"pointId": 2069,
				"pointName": "泸西"
			}, {
				"code": "LR",
				"identifier": "LRU",
				"latitude": 34.1474166671435,
				"longitude": 112.84019444485506,
				"pointId": 2070,
				"pointName": "临汝"
			}, {
				"code": "JN",
				"identifier": "JIG",
				"latitude": 35.52919444441795,
				"longitude": 105.72200000037749,
				"pointId": 2071,
				"pointName": "静宁"
			}, {
				"code": "LX",
				"identifier": "LXI",
				"latitude": 24.54016666660706,
				"longitude": 103.7418055554231,
				"pointId": 2073,
				"pointName": "泸西"
			}, {
				"code": "jt",
				"identifier": "PT",
				"latitude": 37.19619444410007,
				"longitude": 104.07527777751287,
				"pointId": 2074,
				"pointName": "景泰"
			}, {
				"code": "LK",
				"identifier": "LKO",
				"latitude": 29.90822222232819,
				"longitude": 113.69011111110449,
				"pointId": 2075,
				"pointName": "龙口"
			}, {
				"code": "JT",
				"identifier": "JTA",
				"latitude": 37.1956944445769,
				"longitude": 104.07797222236792,
				"pointId": 2076,
				"pointName": "景泰"
			}, {
				"code": "WN",
				"identifier": "HX",
				"latitude": 26.86166666646799,
				"longitude": 104.28000000019868,
				"pointId": 2078,
				"pointName": "威宁"
			}, {
				"code": "XS",
				"identifier": "XSH",
				"latitude": 30.43633333345254,
				"longitude": 115.26797222221892,
				"pointId": 2079,
				"pointName": "浠水"
			}, {
				"code": "HY",
				"identifier": "HUY",
				"latitude": 28.57838888863723,
				"longitude": 109.45099999997765,
				"pointId": 2081,
				"pointName": "花垣"
			}, {
				"code": "HH",
				"identifier": "OQ",
				"latitude": 31.46166666646798,
				"longitude": 91.99166666666666,
				"pointId": 2082,
				"pointName": "黑河"
			}, {
				"code": "zy",
				"identifier": "AW",
				"latitude": 38.78000000019868,
				"longitude": 100.74833333293597,
				"pointId": 2083,
				"pointName": "张掖"
			}, {
				"code": "ZD",
				"identifier": "DM",
				"latitude": 29.25605555524429,
				"longitude": 91.76411111056805,
				"pointId": 2085,
				"pointName": "泽当"
			}, {
				"code": "QFL",
				"identifier": "Y",
				"latitude": 25.17036111106475,
				"longitude": 110.31988888904452,
				"pointId": 2086,
				"pointName": "奇峰岭"
			}, {
				"code": "llc",
				"identifier": "GJ",
				"latitude": 28.075,
				"longitude": 112.21000000039736,
				"pointId": 2087,
				"pointName": "老粮仓"
			}, {
				"code": "zh",
				"identifier": "G",
				"latitude": 22.26333333353201,
				"longitude": 113.58666666671634,
				"pointId": 2088,
				"pointName": "珠海"
			}, {
				"code": "tth",
				"identifier": "YU",
				"latitude": 34.21666666666667,
				"longitude": 92.45,
				"pointId": 2089,
				"pointName": "沱沱河"
			}, {
				"code": "LLC",
				"identifier": "LLC",
				"latitude": 28.06691666666108,
				"longitude": 112.20922222236793,
				"pointId": 2090,
				"pointName": "老粮仓"
			}, {
				"code": "NL",
				"identifier": "NLG",
				"latitude": 22.53063888847828,
				"longitude": 113.56308333277703,
				"pointId": 2091,
				"pointName": "南朗"
			}, {
				"code": "df",
				"identifier": "UW",
				"latitude": 30.98333333333333,
				"longitude": 101.11666666666666,
				"pointId": 2092,
				"pointName": "道孚"
			}, {
				"code": "ll",
				"identifier": "FM",
				"latitude": 29.35,
				"longitude": 111.64000000009933,
				"pointId": 2093,
				"pointName": "临澧"
			}, {
				"code": "GL",
				"identifier": "GLN",
				"latitude": 22.70997222264608,
				"longitude": 114.03469444451233,
				"pointId": 2094,
				"pointName": "观澜"
			}, {
				"code": "XY",
				"identifier": "XYO",
				"latitude": 28.17066666657726,
				"longitude": 105.42141666660706,
				"pointId": 2095,
				"pointName": "叙永"
			}, {
				"code": "LL",
				"identifier": "LZ",
				"latitude": 27.65130555555225,
				"longitude": 113.51347222228846,
				"pointId": 2096,
				"pointName": "醴陵"
			}, {
				"code": "SK",
				"identifier": "SHK",
				"latitude": 22.49833333293597,
				"longitude": 113.90169444444278,
				"pointId": 2097,
				"pointName": "蛇口"
			}, {
				"code": "ZY",
				"identifier": "ZYG",
				"latitude": 30.11716666665549,
				"longitude": 104.67530555526416,
				"pointId": 2098,
				"pointName": "资阳"
			}, {
				"code": "lgz",
				"identifier": "LKC",
				"latitude": 22.37833333313465,
				"longitude": 113.88333333333334,
				"pointId": 2099,
				"pointName": "龙鼓洲"
			}, {
				"code": "LL",
				"identifier": "LIG",
				"latitude": 27.64941666722298,
				"longitude": 113.51527777810891,
				"pointId": 2100,
				"pointName": "醴陵"
			}, {
				"code": "CZ",
				"identifier": "CZH",
				"latitude": 30.64588888883591,
				"longitude": 103.68533333328863,
				"pointId": 2101,
				"pointName": "崇州"
			}, {
				"code": "lb",
				"identifier": "KC",
				"latitude": 23.73000000019868,
				"longitude": 109.23000000019869,
				"pointId": 2102,
				"pointName": "来宾"
			}, {
				"code": "JT",
				"identifier": "JTG",
				"latitude": 30.87274999966224,
				"longitude": 104.39141666690509,
				"pointId": 2103,
				"pointName": "金堂"
			}, {
				"code": "LZ",
				"identifier": "LON",
				"latitude": 22.35749999980132,
				"longitude": 106.869166666766,
				"pointId": 2104,
				"pointName": "龙州"
			}, {
				"code": "ZJ",
				"identifier": "ZHJ",
				"latitude": 27.45113888892035,
				"longitude": 109.70727777779102,
				"pointId": 2105,
				"pointName": "芷江"
			}, {
				"code": "SJ",
				"identifier": "SJG",
				"latitude": 25.775,
				"longitude": 109.60833333333333,
				"pointId": 2106,
				"pointName": "三江"
			}, {
				"code": "HK",
				"identifier": "HOK",
				"latitude": 31.32375000019868,
				"longitude": 114.42916666666666,
				"pointId": 2107,
				"pointName": "河口"
			}, {
				"code": "lk",
				"identifier": "KG",
				"latitude": 29.91833333335817,
				"longitude": 113.69333333373069,
				"pointId": 2108,
				"pointName": "龙口"
			}, {
				"code": "ET",
				"identifier": "QP",
				"latitude": 24.67091666658719,
				"longitude": 110.7756388882796,
				"pointId": 2109,
				"pointName": "二塘"
			}, {
				"code": "zk",
				"identifier": "DO",
				"latitude": 33.61666666666667,
				"longitude": 114.64166666666667,
				"pointId": 2110,
				"pointName": "周口"
			}, {
				"code": "fk",
				"identifier": "FK",
				"latitude": 44.17333333343267,
				"longitude": 87.98000000019869,
				"pointId": 2111,
				"pointName": "阜康"
			}, {
				"code": "TM",
				"identifier": "WTM",
				"latitude": 30.63952777733406,
				"longitude": 113.14224999944369,
				"pointId": 2112,
				"pointName": "天门"
			}, {
				"code": "LR",
				"identifier": "WB",
				"latitude": 34.14827777743339,
				"longitude": 112.83624999995033,
				"pointId": 2113,
				"pointName": "临汝"
			}, {
				"code": "FK",
				"identifier": "FKG",
				"latitude": 44.17102777759234,
				"longitude": 87.98158333400885,
				"pointId": 2114,
				"pointName": "阜康"
			}, {
				"code": "XS",
				"identifier": "SY",
				"latitude": 30.437722222507,
				"longitude": 115.26394444505374,
				"pointId": 2115,
				"pointName": "浠水"
			}, {
				"code": "bs",
				"identifier": "OX",
				"latitude": 23.9,
				"longitude": 106.64833333293596,
				"pointId": 2117,
				"pointName": "百色"
			}, {
				"code": "wy",
				"identifier": "WA",
				"latitude": 24.35,
				"longitude": 114.11166666646798,
				"pointId": 2118,
				"pointName": "翁源"
			}, {
				"code": "lm",
				"identifier": "UF",
				"latitude": 23.64833333293597,
				"longitude": 114.32833333313465,
				"pointId": 2119,
				"pointName": "龙门"
			}, {
				"code": "nx",
				"identifier": "NS",
				"latitude": 25.09166666666667,
				"longitude": 114.27333333343267,
				"pointId": 2120,
				"pointName": "南雄"
			}, {
				"code": "hqlf",
				"identifier": "FC",
				"latitude": 37.03333333333333,
				"longitude": 75.5,
				"pointId": 2121,
				"pointName": "红其拉甫"
			}, {
				"code": "DY",
				"identifier": "VL",
				"latitude": 30.75277777786056,
				"longitude": 111.85497222195069,
				"pointId": 2122,
				"pointName": "当阳"
			}, {
				"code": "qt",
				"identifier": "HJ",
				"latitude": 44.01666666666667,
				"longitude": 89.63333333333334,
				"pointId": 2123,
				"pointName": "奇台"
			}, {
				"code": "sc",
				"identifier": "SC",
				"latitude": 38.43333333333333,
				"longitude": 77.26666666666667,
				"pointId": 2124,
				"pointName": "莎车"
			}, {
				"code": "DTPNYT",
				"identifier": "ZK",
				"latitude": 28.01991666654746,
				"longitude": 112.9648611108462,
				"pointId": 2125,
				"pointName": "大托铺南远台"
			}, {
				"code": "SC",
				"identifier": "SCH",
				"latitude": 38.42658333381017,
				"longitude": 77.24000000009934,
				"pointId": 2127,
				"pointName": "莎车"
			}, {
				"code": "JH",
				"identifier": "KH",
				"latitude": 44.59994444449742,
				"longitude": 82.89986111124357,
				"pointId": 2128,
				"pointName": "精河"
			}, {
				"code": "LY",
				"identifier": "CW",
				"latitude": 26.53247222304344,
				"longitude": 112.8489166667064,
				"pointId": 2129,
				"pointName": "耒阳"
			}, {
				"code": "hm",
				"identifier": "RL",
				"latitude": 42.84833333293597,
				"longitude": 93.64000000009933,
				"pointId": 2130,
				"pointName": "哈密"
			}, {
				"code": "HM",
				"identifier": "HMI",
				"latitude": 42.83363888890793,
				"longitude": 93.63852777779103,
				"pointId": 2131,
				"pointName": "哈密"
			}, {
				"code": "jqjc",
				"latitude": 39.553333333383,
				"longitude": 98.88666666671634,
				"pointId": 2143,
				"pointName": "酒泉机场"
			}, {
				"code": "ZYJC",
				"latitude": 38.79666666686535,
				"longitude": 100.68500000002483,
				"pointId": 2145,
				"pointName": "张掖机场"
			}, {
				"code": "HQBJT",
				"identifier": "C",
				"latitude": 31.22166666686535,
				"longitude": 121.33416666667908,
				"pointId": 2152,
				"pointName": "LMM"
			}, {
				"code": "lt",
				"latitude": 34.33333333333334,
				"longitude": 109.11666666666666,
				"pointId": 2153,
				"pointName": "临潼"
			}, {
				"code": "lt",
				"latitude": 34.16666666666666,
				"longitude": 109.31666666666666,
				"pointId": 2154,
				"pointName": "蓝田"
			}, {
				"code": "NT",
				"identifier": "K",
				"latitude": 22.56222222248713,
				"longitude": 113.91416666706404,
				"pointId": 2155,
				"pointName": "南头"
			}, {
				"code": "CZ",
				"identifier": "CH",
				"latitude": 22.22000000004967,
				"longitude": 114.03000000019868,
				"pointId": 2156,
				"pointName": "CHEUNG CHAU"
			}, {
				"code": "bhfc",
				"latitude": 21.54000000009934,
				"longitude": 109.2933333337307,
				"pointId": 2157,
				"pointName": "北海"
			}, {
				"code": "hkml",
				"latitude": 19.93500000002484,
				"longitude": 110.45833333333333,
				"pointId": 2158,
				"pointName": "海口"
			}, {
				"code": "hz",
				"latitude": 23.05833333333333,
				"longitude": 114.5,
				"pointId": 2162,
				"pointName": "惠州西远台"
			}, {
				"code": "ay",
				"identifier": "VG",
				"latitude": 36.15,
				"longitude": 114.35,
				"pointId": 2164,
				"pointName": "安阳北远台"
			}, {
				"code": "jn",
				"latitude": 35.5,
				"longitude": 116.51666666666667,
				"pointId": 2165,
				"pointName": "济宁西远台"
			}, {
				"code": "lsdcyt",
				"latitude": 29.3,
				"longitude": 91.08333333333333,
				"pointId": 2166,
				"pointName": "拉萨东超远台"
			}, {
				"code": "CH",
				"identifier": "CEH",
				"latitude": 26.66602777838707,
				"longitude": 100.72083333333333,
				"pointId": 2170,
				"pointName": "程海"
			}, {
				"code": "GY",
				"identifier": "GYN",
				"latitude": 32.38774999976158,
				"longitude": 105.69130555589994,
				"pointId": 2171,
				"pointName": "广元"
			}, {
				"code": "rg",
				"latitude": 32.26666666666667,
				"longitude": 120.47666666706404,
				"pointId": 2172,
				"pointName": "如皋西北远台"
			}, {
				"code": "YC",
				"identifier": "YCH",
				"latitude": 33.4230555554231,
				"longitude": 120.20388888890544,
				"pointId": 2174,
				"pointName": "盐城"
			}, {
				"code": "sf",
				"latitude": 31.46666666666667,
				"longitude": 120.41666666666667,
				"pointId": 2175,
				"pointName": "硕放南远台"
			}, {
				"code": "bb",
				"latitude": 33.41333333353202,
				"longitude": 117.5,
				"pointId": 2176,
				"pointName": "蚌埠西南远台"
			}, {
				"code": "wh",
				"latitude": 31.41666666666667,
				"longitude": 118.36666666666666,
				"pointId": 2177,
				"pointName": "芜湖西远台"
			}, {
				"code": "SHPD",
				"latitude": 31.1433333337307,
				"longitude": 121.79166666666667,
				"pointId": 2178,
				"pointName": "上海/浦东"
			}, {
				"code": "gf",
				"latitude": 31.3,
				"longitude": 120.4,
				"pointId": 2179,
				"pointName": "光福"
			}, {
				"code": "xzgy",
				"latitude": 34.06000000039737,
				"longitude": 117.556666666766,
				"pointId": 2180,
				"pointName": "徐州"
			}, {
				"code": "mdjdbjt",
				"identifier": "X",
				"latitude": 44.54166666666666,
				"longitude": 129.58000000019868,
				"pointId": 2183,
				"pointName": "牡丹江"
			}, {
				"code": "DDLT",
				"latitude": 40.0256388882796,
				"longitude": 124.28697222222884,
				"pointId": 2184,
				"pointName": "丹东"
			}, {
				"code": "asxnyt",
				"latitude": 41.10666666676601,
				"longitude": 122.853333333383,
				"pointId": 2185,
				"pointName": "鞍山西南远台"
			}, {
				"code": "lhdbyt",
				"latitude": 42.31666666666667,
				"longitude": 125.8,
				"pointId": 2186,
				"pointName": "柳河东北远台"
			}, {
				"code": "zngjd",
				"latitude": 27.8,
				"longitude": 87.41666666666667,
				"pointId": 2187,
				"pointName": "中尼国境点"
			}, {
				"code": "DXXNYT",
				"identifier": "UY",
				"latitude": 40.34499999980132,
				"longitude": 99.72944444417953,
				"pointId": 2188,
				"pointName": "鼎新"
			}, {
				"code": "P60",
				"latitude": 35.07055555557211,
				"longitude": 117.7125,
				"pointId": 2189,
				"pointName": "P60"
			}, {
				"code": "NIXEM",
				"latitude": 32.94194444417953,
				"longitude": 119.1605555554231,
				"pointId": 2190,
				"pointName": "NIXEM"
			}, {
				"code": "LSGG",
				"latitude": 29.2980555554231,
				"longitude": 90.91222222248713,
				"pointId": 2191,
				"pointName": "拉萨"
			}, {
				"code": "rkz",
				"latitude": 29.3516666666915,
				"longitude": 89.31166666646799,
				"pointId": 2192,
				"pointName": "日喀则机场"
			}, {
				"code": "LATOP",
				"latitude": 22.2816666662693,
				"longitude": 113.6433333337307,
				"pointId": 2198,
				"pointName": "LATOP"
			}, {
				"code": "XJC",
				"latitude": 31.3516666666915,
				"longitude": 121.11000000039736,
				"pointId": 2199,
				"pointName": "EKIMU"
			}, {
				"code": "olgap",
				"latitude": 31.07333333343268,
				"longitude": 121.15,
				"pointId": 2200,
				"pointName": "OLGAP"
			}, {
				"code": "VEXEX",
				"latitude": 29.9730555554231,
				"longitude": 121.04583333333333,
				"pointId": 2214,
				"pointName": "VEXEX"
			}, {
				"code": "jh",
				"latitude": 21.01666666666667,
				"longitude": 109.7,
				"pointId": 2215,
				"pointName": "江洪"
			}, {
				"code": "P250",
				"latitude": 35.17722222208977,
				"longitude": 119.47222222238778,
				"pointId": 2216,
				"pointName": "P250"
			}, {
				"code": "byxnyt",
				"identifier": "FO",
				"latitude": 23.14000000009934,
				"longitude": 113.24000000009934,
				"pointId": 2235,
				"pointName": "白云西南远台"
			}, {
				"code": "TOMUD",
				"latitude": 21.85749999980132,
				"longitude": 112.54722222189109,
				"pointId": 2236,
				"pointName": "TOMUD"
			}, {
				"code": "xcjc",
				"latitude": 27.98833333353202,
				"longitude": 102.18500000002483,
				"pointId": 2255,
				"pointName": "西昌机场"
			}, {
				"code": "nynyt",
				"latitude": 39.75,
				"longitude": 116.38333333333334,
				"pointId": 2356,
				"pointName": "南苑南远台"
			}, {
				"code": "dld",
				"latitude": 39.83333333333334,
				"longitude": 116.56666666666666,
				"pointId": 2357,
				"pointName": "大鲁店"
			}, {
				"code": "PD",
				"identifier": "PUD",
				"latitude": 31.17061111107469,
				"longitude": 121.78241666654746,
				"pointId": 2656,
				"pointName": "浦东"
			}, {
				"code": "QL",
				"identifier": "GT",
				"latitude": 31.78500000002483,
				"longitude": 119.05361111114422,
				"pointId": 2683,
				"pointName": "群力"
			}, {
				"code": "CZ",
				"identifier": "SQ",
				"latitude": 36.23833333353202,
				"longitude": 113.11777777783573,
				"pointId": 3099,
				"pointName": "长治"
			}, {
				"identifier": "QM",
				"latitude": 23.10527777771155,
				"longitude": 113.14472222228845,
				"pointId": 3104,
				"pointName": "盐步"
			}, {
				"code": "DS",
				"identifier": "DSH",
				"latitude": 30.14941666722298,
				"longitude": 120.50036111110822,
				"pointId": 3233,
				"pointName": "党山"
			}, {
				"code": "WY",
				"identifier": "WY",
				"latitude": 30.12258333315452,
				"longitude": 120.20252777785063,
				"pointId": 3234,
				"pointName": "闻堰"
			}, {
				"code": "HHNJT",
				"identifier": "Q",
				"latitude": 28.1663888891538,
				"longitude": 113.2211111113429,
				"pointId": 3397,
				"pointName": "黄花南近台"
			}, {
				"code": "NYBD",
				"identifier": "NYB",
				"latitude": 20.01413888931274,
				"longitude": 110.13797222226859,
				"pointId": 4028,
				"pointName": "南盈滨岛"
			}, {
				"code": "FL",
				"identifier": "JH",
				"latitude": 29.70302777762214,
				"longitude": 107.37808333337307,
				"pointId": 4135,
				"pointName": "涪陵"
			}, {
				"code": "SZHT",
				"latitude": 22.64000000009934,
				"longitude": 113.80833333333334,
				"pointId": 4136,
				"pointName": "深圳"
			}, {
				"code": "ZHSZ",
				"latitude": 22.00675000001987,
				"longitude": 113.37666666706403,
				"pointId": 4137,
				"pointName": "珠海/金湾"
			}, {
				"code": "zhjz",
				"latitude": 22.25500000019868,
				"longitude": 113.5816666662693,
				"pointId": 4138,
				"pointName": "珠海九洲"
			}, {
				"latitude": 23.45672222226858,
				"longitude": 111.2478333334128,
				"pointId": 4139,
				"pointName": "梧州"
			},